timestamp_ns,port,gps_tow,gps_week,ins_status_raw,ins_mode,ins_error,gnss_fix,gnss_compass_active,gnss_heading_aiding,yaw,pitch,roll,latitude,longitude,altitude,vel_north,vel_east,vel_down,att_uncertainty,pos_uncertainty,vel_uncertainty,mag_x,mag_y,mag_z,accel_x,accel_y,accel_z,gyro_x,gyro_y,gyro_z,gnss_num_sats,gnss_fix_type,temperature,pressure,last_async_header,messages_parsed,messages_dropped,timestamp_ns
1777925524612885564,/dev/ttyUSB_VN300,210.300006,0,128,0,0,false,false,false,-166.75799560546875,0.22300000488758087,-0.1770000010728836,0.0,0.0,0.0,0.0,0.0,0.0,90.0,0.0,0.0,0.0,0.0,0.0,0.0,0.0,0.0,0.0,0.0,0.0,0,0,0.0,0.0,VNINS,1,0,1777925522067613723
1777925524713080042,/dev/ttyUSB_VN300,210.300006,0,128,0,0,false,false,false,-166.75799560546875,0.22300000488758087,-0.1770000010728836,0.0,0.0,0.0,0.0,0.0,0.0,90.0,0.0,0.0,0.0,0.0,0.0,0.0,0.0,0.0,0.0,0.0,0.0,0,0,0.0,0.0,VNINS,1,0,1777925522067613723
1777925524813113644,/dev/ttyUSB_VN300,210.300006,0,128,0,0,false,false,false,-166.75799560546875,0.22300000488758087,-0.1770000010728836,0.0,0.0,0.0,0.0,0.0,0.0,90.0,0.0,0.0,0.0,0.0,0.0,0.0,0.0,0.0,0.0,0.0,0.0,0,0,0.0,0.0,VNINS,1,0,1777925522067613723
1777925524913147802,/dev/ttyUSB_VN300,210.300006,0,128,0,0,false,false,false,-166.75799560546875,0.22300000488758087,-0.1770000010728836,0.0,0.0,0.0,0.0,0.0,0.0,90.0,0.0,0.0,0.0,0.0,0.0,0.0,0.0,0.0,0.0,0.0,0.0,0,0,0.0,0.0,VNINS,1,0,1777925522067613723
1777925525013059475,/dev/ttyUSB_VN300,210.300006,0,128,0,0,false,false,false,-166.75799560546875,0.22300000488758087,-0.1770000010728836,0.0,0.0,0.0,0.0,0.0,0.0,90.0,0.0,0.0,0.0,0.0,0.0,0.0,0.0,0.0,0.0,0.0,0.0,0,0,0.0,0.0,VNINS,1,0,1777925522067613723
1777925525113152505,/dev/ttyUSB_VN300,210.300006,0,128,0,0,false,false,false,-166.75799560546875,0.22300000488758087,-0.1770000010728836,0.0,0.0,0.0,0.0,0.0,0.0,90.0,0.0,0.0,0.0,0.0,0.0,0.0,0.0,0.0,0.0,0.0,0.0,0,0,0.0,0.0,VNINS,1,0,1777925522067613723
1777925525213075771,/dev/ttyUSB_VN300,210.300006,0,128,0,0,false,false,false,-166.75799560546875,0.22300000488758087,-0.1770000010728836,0.0,0.0,0.0,0.0,0.0,0.0,90.0,0.0,0.0,0.0,0.0,0.0,0.0,0.0,0.0,0.0,0.0,0.0,0,0,0.0,0.0,VNINS,1,0,1777925522067613723
1777925525313119299,/dev/ttyUSB_VN300,210.300006,0,128,0,0,false,false,false,-166.75799560546875,0.22300000488758087,-0.1770000010728836,0.0,0.0,0.0,0.0,0.0,0.0,90.0,0.0,0.0,0.0,0.0,0.0,0.0,0.0,0.0,0.0,0.0,0.0,0,0,0.0,0.0,VNINS,1,0,1777925522067613723
1777925525413055917,/dev/ttyUSB_VN300,210.300006,0,128,0,0,false,false,false,-166.75799560546875,0.22300000488758087,-0.1770000010728836,0.0,0.0,0.0,0.0,0.0,0.0,90.0,0.0,0.0,0.0,0.0,0.0,0.0,0.0,0.0,0.0,0.0,0.0,0,0,0.0,0.0,VNINS,1,0,1777925522067613723
1777925525513138429,/dev/ttyUSB_VN300,210.300006,0,128,0,0,false,false,false,-166.75799560546875,0.22300000488758087,-0.1770000010728836,0.0,0.0,0.0,0.0,0.0,0.0,90.0,0.0,0.0,0.0,0.0,0.0,0.0,0.0,0.0,0.0,0.0,0.0,0,0,0.0,0.0,VNINS,1,0,1777925522067613723
1777925850190825793,/dev/ttyUSB_VN300,538.4000060000001,0,128,0,0,false,false,false,-166.7742462158203,0.23448821902275085,-0.176225483417511,0.0,0.0,0.0,0.0,0.0,0.0,0.0,0.0,0.0,-0.07770544290542603,0.01788017526268959,0.13133268058300018,0.04904920980334282,0.02059909701347351,-9.396912574768066,-0.0003075292333960533,0.0005559615092352033,0.0007001417689025402,0,0,20.750194549560547,100.13700103759766,VNBIN,81,0,1777925850166080076
1777925850292403118,/dev/ttyUSB_VN300,538.500005,0,128,0,0,false,false,false,-166.77603149414062,0.23420770466327667,-0.17601214349269867,0.0,0.0,0.0,0.0,0.0,0.0,0.0,0.0,0.0,-0.07560871541500092,0.01574745774269104,0.13508258759975433,0.02648136392235756,0.024942755699157715,-9.40909481048584,0.00034371716901659966,-0.0001768989022821188,-0.0003126007504761219,0,0,20.74909019470215,100.12500762939453,VNBIN,83,0,1777925850265787891
1777925850392401953,/dev/ttyUSB_VN300,538.600006,0,128,0,0,false,false,false,-166.7801513671875,0.23299895226955414,-0.17392824590206146,0.0,0.0,0.0,0.0,0.0,0.0,0.0,0.0,0.0,-0.07652761042118073,0.01360903400927782,0.13871389627456665,0.036775410175323486,0.01344299130141735,-9.418167114257812,-0.0001413784921169281,0.00005184824112802744,0.0002825628034770489,0,0,20.74886703491211,100.13700103759766,VNBIN,85,0,1777925850365519317
1777925850492399288,/dev/ttyUSB_VN300,538.700006,0,128,0,0,false,false,false,-166.78233337402344,0.2323155254125595,-0.1744288057088852,0.0,0.0,0.0,0.0,0.0,0.0,0.0,0.0,0.0,-0.07556665688753128,0.013624151237308979,0.13507124781608582,0.025143584236502647,0.03236626088619232,-9.40238094329834,-0.0005520498380064964,-0.000014216173440217972,-0.00037967320531606674,0,0,20.749141693115234,100.1290054321289,VNBIN,87,0,1777925850466218156
1777925850592411641,/dev/ttyUSB_VN300,538.800006,0,128,0,0,false,false,false,-166.7844696044922,0.23144938051700592,-0.175278902053833,0.0,0.0,0.0,0.0,0.0,0.0,0.0,0.0,0.0,-0.07869589328765869,0.017874404788017273,0.1325204074382782,0.0296385046094656,0.02560725435614586,-9.396791458129883,-0.0005106907337903976,-0.0003341296687722206,-0.0003179982304573059,0,0,20.749126434326172,100.12500762939453,VNBIN,89,0,1777925850565923119
1777925850692433976,/dev/ttyUSB_VN300,538.9000060000001,0,128,0,0,false,false,false,-166.78453063964844,0.23140260577201843,-0.1737174093723297,0.0,0.0,0.0,0.0,0.0,0.0,0.0,0.0,0.0,-0.07562346011400223,0.015752006322145462,0.1338551938533783,0.028141828253865242,0.023697705939412117,-9.409643173217773,0.00012496765702962875,0.000057486467994749546,-0.00018413085490465164,0,0,20.749530792236328,100.13700103759766,VNBIN,91,0,1777925850665648267
1777925850792407996,/dev/ttyUSB_VN300,539.000006,0,128,0,0,false,false,false,-166.78274536132812,0.23284898698329926,-0.17435406148433685,0.0,0.0,0.0,0.0,0.0,0.0,0.0,0.0,0.0,-0.0705738365650177,0.01680910214781761,0.13774050772190094,0.035415202379226685,0.025124860927462578,-9.420249938964844,0.00007176259532570839,0.00013846484944224358,-0.0003417334519326687,0,0,20.749828338623047,100.12500762939453,VNBIN,93,0,1777925850766338180
1777925850892406127,/dev/ttyUSB_VN300,539.100006,0,128,0,0,false,false,false,-166.7816619873047,0.2318814992904663,-0.1760922521352768,0.0,0.0,0.0,0.0,0.0,0.0,0.0,0.0,0.0,-0.07156448811292648,0.016802102327346802,0.13892868161201477,0.03487708419561386,0.03969080001115799,-9.393296241760254,0.0000980990007519722,-0.00047386682126671076,0.00036387424916028976,0,0,20.75071144104004,100.11300659179688,VNBIN,95,0,1777925850866043179
1777925850992411240,/dev/ttyUSB_VN300,539.200006,0,128,0,0,false,false,false,-166.78207397460938,0.2326115518808365,-0.17670369148254395,0.0,0.0,0.0,0.0,0.0,0.0,0.0,0.0,0.0,-0.07460983842611313,0.016804518178105354,0.13635525107383728,0.04329581558704376,0.018000876531004906,-9.372288703918457,-0.000040829647332429886,0.0002179598668590188,-0.00023357663303613663,0,0,20.752229690551758,100.12500762939453,VNBIN,97,0,1777925850965780605
1777925851092410760,/dev/ttyUSB_VN300,539.300006,0,32896,0,0,false,false,false,-166.7820281982422,0.23320791125297546,-0.17621247470378876,0.0,0.0,0.0,0.0,0.0,0.0,0.0,0.0,0.0,-0.0766349583864212,0.016805751249194145,0.1350489854812622,0.05104856193065643,0.031326260417699814,-9.396686553955078,0.00010030996054410934,0.00005044706631451845,-0.0003438154235482216,0,0,20.751686096191406,100.1290054321289,VNBIN,99,0,1777925851065464124
1777925851192411762,/dev/ttyUSB_VN300,539.4000060000001,0,32896,0,0,false,false,false,-166.7808837890625,0.23341578245162964,-0.17795942723751068,0.0,0.0,0.0,0.0,0.0,0.0,0.0,0.0,0.0,-0.0736129954457283,0.015754079446196556,0.13393454253673553,0.04290388524532318,0.02401723712682724,-9.377477645874023,0.0010219314135611057,0.0003054203698411584,-0.00010906951501965523,0,0,20.75172996520996,100.12500762939453,VNBIN,101,0,1777925851166172203
1777925851292410800,/dev/ttyUSB_VN300,539.500006,0,32896,0,0,false,false,false,-166.7807159423828,0.23173099756240845,-0.1752718985080719,0.0,0.0,0.0,0.0,0.0,0.0,0.0,0.0,0.0,-0.07662653923034668,0.0178579930216074,0.13750915229320526,0.03956858813762665,0.020568134263157845,-9.40223503112793,0.0003758934326469898,-0.0001375236315652728,0.0005877180956304073,0,0,20.751821517944336,100.14100646972656,VNBIN,103,0,1777925851265881611
1777925851392421839,/dev/ttyUSB_VN300,539.600005,0,32896,0,0,false,false,false,-166.7788543701172,0.23105543851852417,-0.17283876240253448,0.0,0.0,0.0,0.0,0.0,0.0,0.0,0.0,0.0,-0.07356876134872437,0.015740102156996727,0.13761644065380096,0.04329545050859451,0.02976369485259056,-9.387632369995117,0.00033351918682456017,-0.00023940904065966606,0.00019492628052830696,0,0,20.751876831054688,100.13700103759766,VNBIN,105,0,1777925851365610425
1777925851492431026,/dev/ttyUSB_VN300,539.700006,0,32896,0,0,false,false,false,-166.78294372558594,0.22986876964569092,-0.17335684597492218,0.0,0.0,0.0,0.0,0.0,0.0,0.0,0.0,0.0,-0.07758959382772446,0.0157335102558136,0.13745847344398499,0.0474972203373909,0.023902099579572678,-9.397733688354492,-0.0001363609917461872,0.00035841285716742277,-0.00016480637714266777,0,0,20.750795364379883,100.13700103759766,VNBIN,107,0,1777925851466295560
1777925851592436212,/dev/ttyUSB_VN300,539.800006,0,32896,0,0,false,false,false,-166.78138732910156,0.2299637645483017,-0.17208561301231384,0.0,0.0,0.0,0.0,0.0,0.0,0.0,0.0,0.0,-0.07464558631181717,0.01787131279706955,0.135133296251297,0.04645493999123573,0.0307435542345047,-9.384696960449219,0.00035699037835001945,0.00034523196518421173,-0.0002771839499473572,0,0,20.750858306884766,100.1290054321289,VNBIN,109,0,1777925851566017301
1777925851692423288,/dev/ttyUSB_VN300,539.9000060000001,0,32896,0,0,false,false,false,-166.78292846679688,0.23167575895786285,-0.16909544169902802,0.0,0.0,0.0,0.0,0.0,0.0,0.0,0.0,0.0,-0.07565059512853622,0.017869526520371437,0.13509391248226166,0.03333306685090065,0.015516482293605804,-9.394810676574707,-0.0002329680137336254,-0.00024105655029416084,-0.00012720143422484398,0,0,20.751426696777344,100.14100646972656,VNBIN,111,0,1777925851665718986
1777925851792445530,/dev/ttyUSB_VN300,540.000006,0,128,0,0,false,false,false,-166.78477478027344,0.23319308459758759,-0.16924002766609192,0.0,0.0,0.0,0.0,0.0,0.0,0.0,0.0,0.0,-0.07659912109375,0.015739528462290764,0.1362706422805786,0.05340345948934555,0.020036688074469566,-9.376675605773926,0.000252364668995142,0.0005227424553595483,-0.000703323632478714,0,0,20.75091552734375,100.12500762939453,VNBIN,113,0,1777925851765444190
1777925851892428976,/dev/ttyUSB_VN300,540.100006,0,128,0,0,false,false,false,-166.78492736816406,0.23047474026679993,-0.1715233027935028,0.0,0.0,0.0,0.0,0.0,0.0,0.0,0.0,0.0,-0.07366110384464264,0.01893480494618416,0.1351785957813263,0.03529774025082588,0.02388131059706211,-9.37465763092041,-0.0011224518530070782,0.0006008219788782299,0.00014271913096308708,0,0,20.75107192993164,100.1290054321289,VNBIN,115,0,1777925851866201325
1777925851992450459,/dev/ttyUSB_VN300,540.200006,0,128,0,0,false,false,false,-166.78277587890625,0.23233991861343384,-0.17070072889328003,0.0,0.0,0.0,0.0,0.0,0.0,0.0,0.0,0.0,-0.07158529758453369,0.01786276511847973,0.1389341801404953,0.03601894527673721,0.0366806760430336,-9.402538299560547,0.00009776325896382332,-0.000534688588231802,-0.00030893972143530846,0,0,20.750959396362305,100.14100646972656,VNBIN,117,0,1777925851965860029
1777925852092426340,/dev/ttyUSB_VN300,540.300006,0,128,0,0,false,false,false,-166.78530883789062,0.23037688434123993,-0.1704312264919281,0.0,0.0,0.0,0.0,0.0,0.0,0.0,0.0,0.0,-0.07364865392446518,0.016821203753352165,0.1327124834060669,0.03351384773850441,0.02648898959159851,-9.379100799560547,0.0006439313292503357,-0.00044608768075704575,-0.0003889603540301323,0,0,20.750225067138672,100.12500762939453,VNBIN,119,0,1777925852065567487
1777925852191732280,/dev/ttyUSB_VN300,540.4000060000001,0,128,0,0,false,false,false,-166.78407287597656,0.23383887112140656,-0.17265138030052185,0.0,0.0,0.0,0.0,0.0,0.0,0.0,0.0,0.0,-0.07762537896633148,0.016800319775938988,0.13623662292957306,0.040100399404764175,0.03462809696793556,-9.376124382019043,-0.0005369973368942738,-0.00018393865320831537,0.0005473722703754902,0,0,20.750234603881836,100.1290054321289,VNBIN,121,0,1777925852166262138
1777925852292439690,/dev/ttyUSB_VN300,540.500006,0,128,0,0,false,false,false,-166.78260803222656,0.2312570959329605,-0.17034336924552917,0.0,0.0,0.0,0.0,0.0,0.0,0.0,0.0,0.0,-0.07354771345853806,0.0146793806925416,0.1376105546951294,0.016901928931474686,0.025644581764936447,-9.381807327270508,0.00013824133202433586,-0.00042462104465812445,0.00008119642734527588,0,0,20.75116729736328,100.12500762939453,VNBIN,123,0,1777925852265991673
1777925852392444579,/dev/ttyUSB_VN300,540.600006,0,128,0,0,false,false,false,-166.78549194335938,0.23178304731845856,-0.16913112998008728,0.0,0.0,0.0,0.0,0.0,0.0,0.0,0.0,0.0,-0.07460114359855652,0.017857708036899567,0.1388157606124878,0.021089157089591026,0.008590041659772396,-9.381063461303711,0.000029115937650203705,-0.0003747324226424098,0.0002141166478395462,0,0,20.751182556152344,100.14100646972656,VNBIN,125,0,1777925852365701412
1777925852492311133,/dev/ttyUSB_VN300,540.700005,0,128,0,0,false,false,false,-166.7850799560547,0.2314205914735794,-0.1675647348165512,0.0,0.0,0.0,0.0,0.0,0.0,0.0,0.0,0.0,-0.0726349875330925,0.01787465251982212,0.135212704539299,0.04369272664189339,0.031210485845804214,-9.357765197753906,0.00002641882747411728,-0.0003981509944424033,-0.0002116253599524498,0,0,20.75164794921875,100.14100646972656,VNBIN,127,0,1777925852465416687
1777925852592317873,/dev/ttyUSB_VN300,540.800006,0,128,0,0,false,false,false,-166.78363037109375,0.23158712685108185,-0.16773457825183868,0.0,0.0,0.0,0.0,0.0,0.0,0.0,0.0,0.0,-0.07557284832000732,0.014679677784442902,0.13630448281764984,0.0323626883327961,0.03189484775066376,-9.397562026977539,0.00003046821802854538,0.00010689964983612299,0.0008762478828430176,0,0,20.75194549560547,100.12500762939453,VNBIN,129,0,1777925852566102561
1777925852692316520,/dev/ttyUSB_VN300,540.9000060000001,0,128,0,0,false,false,false,-166.78045654296875,0.2308562695980072,-0.1675790697336197,0.0,0.0,0.0,0.0,0.0,0.0,0.0,0.0,0.0,-0.07364043593406677,0.017872216179966927,0.13517311215400696,0.04605831950902939,0.025768334046006203,-9.3916015625,0.0001529850997030735,-0.00027761526871472597,0.0000871908850967884,0,0,20.75257110595703,100.12500762939453,VNBIN,131,0,1777925852665825818
1777925852792311390,/dev/ttyUSB_VN300,541.000006,0,128,0,0,false,false,false,-166.77853393554688,0.23169302940368652,-0.1676340103149414,0.0,0.0,0.0,0.0,0.0,0.0,0.0,0.0,0.0,-0.07659932971000671,0.015738289803266525,0.1362707018852234,0.03499404340982437,0.014081059023737907,-9.406091690063477,0.00019919639453291893,-0.00026021688245236874,-0.00029263831675052643,0,0,20.753768920898438,100.1290054321289,VNBIN,133,0,1777925852765522427
1777925852892313482,/dev/ttyUSB_VN300,541.100006,0,32896,0,0,false,false,false,-166.7719268798828,0.23214688897132874,-0.16815903782844543,0.0,0.0,0.0,0.0,0.0,0.0,0.0,0.0,0.0,-0.07460376620292664,0.015745816752314568,0.13512223958969116,0.03986100107431412,0.030244197696447372,-9.401904106140137,0.00007988745346665382,-0.00023255893029272556,0.00040397047996520996,0,0,20.75438117980957,100.1290054321289,VNBIN,135,0,1777925852866235467
1777925852992316778,/dev/ttyUSB_VN300,541.200006,0,32896,0,0,false,false,false,-166.77447509765625,0.2335055023431778,-0.16820868849754333,0.0,0.0,0.0,0.0,0.0,0.0,0.0,0.0,0.0,-0.0685403123497963,0.017856977880001068,0.1415080577135086,0.039522796869277954,0.04578353464603424,-9.380291938781738,-0.00019379286095499992,0.0009093735134229064,0.00011663604527711868,0,0,20.755001068115234,100.1290054321289,VNBIN,137,0,1777925852965948539
1777925853092318184,/dev/ttyUSB_VN300,541.300006,0,32896,0,0,false,false,false,-166.77891540527344,0.236680269241333,-0.16811896860599518,0.0,0.0,0.0,0.0,0.0,0.0,0.0,0.0,0.0,-0.07368240505456924,0.01999366469681263,0.1351846158504486,0.035138875246047974,0.033728793263435364,-9.394845008850098,-0.0003834688104689121,-0.00017244426999241114,0.00010302383452653885,0,0,20.755279541015625,100.12500762939453,VNBIN,139,0,1777925853065657518
1777925853192342888,/dev/ttyUSB_VN300,541.4000060000001,0,32896,0,0,false,false,false,-166.78024291992188,0.23396718502044678,-0.1700262576341629,0.0,0.0,0.0,0.0,0.0,0.0,0.0,0.0,0.0,-0.07460993528366089,0.016802318394184113,0.1363557130098343,0.03009786270558834,0.04035528004169464,-9.386018753051758,-0.00017236080020666122,0.00013979035429656506,-0.0006270110607147217,0,0,20.755109786987305,100.12500762939453,VNBIN,141,0,1777925853165361997
1777925853292324165,/dev/ttyUSB_VN300,541.500006,0,32896,0,0,false,false,false,-166.7794647216797,0.2341647744178772,-0.1709989458322525,0.0,0.0,0.0,0.0,0.0,0.0,0.0,0.0,0.0,-0.07457412779331207,0.015736432746052742,0.13757742941379547,0.04305388033390045,0.03176143020391464,-9.400758743286133,0.0005943793803453445,0.0005763031076639891,0.00002274010330438614,0,0,20.754898071289062,100.12500762939453,VNBIN,143,0,1777925853266085074
1777925853392330256,/dev/ttyUSB_VN300,541.600006,0,32896,0,0,false,false,false,-166.78134155273438,0.23377428948879242,-0.16973865032196045,0.0,0.0,0.0,0.0,0.0,0.0,0.0,0.0,0.0,-0.07162126153707504,0.01892717555165291,0.13771268725395203,0.040616221725940704,0.02039947174489498,-9.401935577392578,0.0003349003382027149,-0.0006738991942256689,-0.0004595508798956871,0,0,20.754268646240234,100.12500762939453,VNBIN,145,0,1777925853365840109
1777925853492328959,/dev/ttyUSB_VN300,541.700006,0,32896,0,0,false,false,false,-166.78250122070312,0.23474404215812683,-0.16953812539577484,0.0,0.0,0.0,0.0,0.0,0.0,0.0,0.0,0.0,-0.0756421834230423,0.01891990564763546,0.13755442202091217,0.034579429775476456,0.03021080605685711,-9.402791023254395,-0.00041653169319033623,0.000449597486294806,0.00037950463593006134,0,0,20.754587173461914,100.14100646972656,VNBIN,147,0,1777925853465519700
1777925853592333829,/dev/ttyUSB_VN300,541.800005,0,32896,0,0,false,false,false,-166.78240966796875,0.23447518050670624,-0.17144955694675446,0.0,0.0,0.0,0.0,0.0,0.0,0.0,0.0,0.0,-0.07361945509910583,0.016809619963169098,0.1351676881313324,0.053184155374765396,0.02783987857401371,-9.39896011352539,-0.000150271225720644,0.0003765879664570093,-0.0005796700716018677,0,0,20.754104614257812,100.12500762939453,VNBIN,149,0,1777925853566225555
1777925853692330458,/dev/ttyUSB_VN300,541.9000060000001,0,32896,0,0,false,false,false,-166.78475952148438,0.23606234788894653,-0.17081721127033234,0.0,0.0,0.0,0.0,0.0,0.0,0.0,0.0,0.0,-0.07358371466398239,0.01574341207742691,0.13638950884342194,0.039545271545648575,0.0358583889901638,-9.405137062072754,0.000049229711294174194,-0.0006820790003985167,-0.00046418095007538795,0,0,20.75395393371582,100.13700103759766,VNBIN,151,0,1777925853665908460
1777925853792330235,/dev/ttyUSB_VN300,542.000006,0,32896,0,0,false,false,false,-166.78530883789062,0.23798008263111115,-0.17146660387516022,0.0,0.0,0.0,0.0,0.0,0.0,0.0,0.0,0.0,-0.07464586198329926,0.017869507893919945,0.1351340264081955,0.058600325137376785,0.012295925058424473,-9.40234375,0.0006120149046182632,-0.0003915246343240142,0.0007777176797389984,0,0,20.754579544067383,100.12500762939453,VNBIN,153,0,1777925853765627161
1777925853892335346,/dev/ttyUSB_VN300,542.100006,0,32896,0,0,false,false,false,-166.7891387939453,0.2366904616355896,-0.17070770263671875,0.0,0.0,0.0,0.0,0.0,0.0,0.0,0.0,0.0,-0.07560041546821594,0.016795950010418892,0.13754317164421082,0.04110248014330864,0.04042257368564606,-9.39038372039795,0.0005750511772930622,0.00021482515148818493,0.0005481448024511337,0,0,20.755207061767578,100.12500762939453,VNBIN,155,0,1777925853865343103
1777925853992334345,/dev/ttyUSB_VN300,542.200006,0,32896,0,0,false,false,false,-166.79061889648438,0.23671302199363708,-0.16913600265979767,0.0,0.0,0.0,0.0,0.0,0.0,0.0,0.0,0.0,-0.07363204658031464,0.018923534080386162,0.1376335322856903,0.03880561888217926,0.04643838480114937,-9.41448974609375,0.000997734721750021,-0.0001265290193259716,0.0004214835353195667,0,0,20.754316329956055,100.14100646972656,VNBIN,157,0,1777925853966056625
1777925854092331955,/dev/ttyUSB_VN300,542.300006,0,8320,0,0,false,false,false,-166.7910919189453,0.23760564625263214,-0.16850343346595764,0.0,0.0,0.0,0.0,0.0,0.0,0.0,0.0,0.0,-0.07361728698015213,0.01891898736357689,0.13886095583438873,0.02728092111647129,0.028220631182193756,-9.387866973876953,-0.0003080391325056553,-0.00011537421960383654,0.0007057790644466877,0,0,20.754268646240234,100.12500762939453,VNBIN,159,0,1777925854065759678
1777925854192339603,/dev/ttyUSB_VN300,542.4000060000001,0,128,0,0,false,false,false,-166.79443359375,0.23653186857700348,-0.17005033791065216,0.0,0.0,0.0,0.0,0.0,0.0,0.0,0.0,0.0,-0.0756867378950119,0.01893387734889984,0.13387250900268555,0.05371773988008499,0.028222836554050446,-9.418682098388672,0.0001285318285226822,-0.0003236114280298352,0.000163177028298378,0,0,20.753860473632812,100.1290054321289,VNBIN,161,0,1777925854165469769
1777925854292339862,/dev/ttyUSB_VN300,542.500006,0,128,0,0,false,false,false,-166.79339599609375,0.23705533146858215,-0.16890525817871094,0.0,0.0,0.0,0.0,0.0,0.0,0.0,0.0,0.0,-0.07157925516366959,0.016804778948426247,0.13770122826099396,0.029293404892086983,0.023889023810625076,-9.416021347045898,0.0002781311050057411,-0.0006101778708398342,0.00015709362924098969,0,0,20.753385543823242,100.14100646972656,VNBIN,163,0,1777925854266221457
1777925854392336287,/dev/ttyUSB_VN300,542.600006,0,128,0,0,false,false,false,-166.79478454589844,0.23723521828651428,-0.16811510920524597,0.0,0.0,0.0,0.0,0.0,0.0,0.0,0.0,0.0,-0.07358347624540329,0.015742747113108635,0.13638927042484283,0.03097723424434662,0.036460503935813904,-9.414342880249023,0.00006236787885427475,-0.00045721104834228754,-0.0002464917488396168,0,0,20.754512786865234,100.12500762939453,VNBIN,165,0,1777925854365898399
1777925854492341323,/dev/ttyUSB_VN300,542.700006,0,128,0,0,false,false,false,-166.79537963867188,0.23898814618587494,-0.168588787317276,0.0,0.0,0.0,0.0,0.0,0.0,0.0,0.0,0.0,-0.07158581167459488,0.017860952764749527,0.1389344334602356,0.03229352459311485,0.05036483705043793,-9.410032272338867,-0.0002844948321580887,0.00003364984877407551,-0.0006187865510582924,0,0,20.754528045654297,100.12500762939453,VNBIN,167,0,1777925854465603842
1777925854592363452,/dev/ttyUSB_VN300,542.800006,0,6272,0,0,false,false,false,-166.7991180419922,0.23931549489498138,-0.16944022476673126,0.0,0.0,0.0,0.0,0.0,0.0,0.0,0.0,0.0,-0.07463071495294571,0.017864609137177467,0.13636095821857452,0.02651616558432579,0.0362444669008255,-9.40523624420166,-0.000030324794352054596,0.000020750099793076515,-0.00015168264508247375,0,0,20.754499435424805,100.12500762939453,VNBIN,169,0,1777925854566314382
1777925854692343544,/dev/ttyUSB_VN300,542.9000050000001,0,6272,0,0,false,false,false,-166.7978515625,0.23927678167819977,-0.16968649625778198,0.0,0.0,0.0,0.0,0.0,0.0,0.0,0.0,0.0,-0.07057400792837143,0.016805652529001236,0.13774096965789795,0.02225348725914955,0.029955875128507614,-9.393529891967773,0.0002041701227426529,0.00004599220119416714,0.00005023786798119545,0,0,20.754941940307617,100.12500762939453,VNBIN,171,0,1777925854666015824
1777925854792341914,/dev/ttyUSB_VN300,543.000006,0,6272,0,0,false,false,false,-166.8000030517578,0.236960306763649,-0.16920167207717896,0.0,0.0,0.0,0.0,0.0,0.0,0.0,0.0,0.0,-0.07764698565006256,0.017858631908893585,0.13624277710914612,0.017857059836387634,0.023766983300447464,-9.391785621643066,-0.0006427410989999771,-0.00028699031099677086,-0.000531426165252924,0,0,20.75634002685547,100.12500762939453,VNBIN,173,0,1777925854765742118
1777925854892351969,/dev/ttyUSB_VN300,543.100006,0,128,0,0,false,false,false,-166.8006134033203,0.23714132606983185,-0.16772569715976715,0.0,0.0,0.0,0.0,0.0,0.0,0.0,0.0,0.0,-0.07265859842300415,0.01682288572192192,0.13152506947517395,0.03668119013309479,0.032790783792734146,-9.398155212402344,0.00029998086392879486,0.00008916878141462803,0.000828184187412262,0,0,20.757471084594727,100.12500762939453,VNBIN,175,0,1777925854865462190
1777925854992341690,/dev/ttyUSB_VN300,543.200006,0,128,0,0,false,false,false,-166.8044891357422,0.2380417138338089,-0.1679495871067047,0.0,0.0,0.0,0.0,0.0,0.0,0.0,0.0,0.0,-0.07468143850564957,0.01893322728574276,0.13391196727752686,0.03271159902215004,0.01621614210307598,-9.385326385498047,-0.0005503259599208832,0.0001908239210024476,0.000044860877096652985,0,0,20.758056640625,100.1290054321289,VNBIN,177,0,1777925854966136786
1777925855092349819,/dev/ttyUSB_VN300,543.300006,0,128,0,0,false,false,false,-166.8081817626953,0.23837727308273315,-0.1663091778755188,0.0,0.0,0.0,0.0,0.0,0.0,0.0,0.0,0.0,-0.07563640922307968,0.01786094903945923,0.13632191717624664,0.043716710060834885,0.010694331489503384,-9.38833236694336,4.3050386011600494e-6,0.00031906465301290154,0.00014242855831980705,0,0,20.757484436035156,100.11700439453125,VNBIN,179,0,1777925855065863524
1777925855192353189,/dev/ttyUSB_VN300,543.4000060000001,0,128,0,0,false,false,false,-166.8101806640625,0.23896154761314392,-0.1687597930431366,0.0,0.0,0.0,0.0,0.0,0.0,0.0,0.0,0.0,-0.06958363205194473,0.0168094951659441,0.1365533024072647,0.03245096653699875,0.033862072974443436,-9.398757934570312,0.00006675301119685173,-0.0004695734241977334,-0.0009541967883706093,0,0,20.758033752441406,100.1290054321289,VNBIN,181,0,1777925855165569133
1777925855292355336,/dev/ttyUSB_VN300,543.500006,0,32896,0,0,false,false,false,-166.81027221679688,0.23992536962032318,-0.17084358632564545,0.0,0.0,0.0,0.0,0.0,0.0,0.0,0.0,0.0,-0.07059506326913834,0.017866062000393867,0.1377469003200531,0.028869012370705605,0.0320759154856205,-9.380558967590332,-0.00021967710927128792,-0.0001544490223750472,0.00015082815662026405,0,0,20.756141662597656,100.13700103759766,VNBIN,183,0,1777925855266269951
1777925855392351114,/dev/ttyUSB_VN300,543.600006,0,32896,0,0,false,false,false,-166.80860900878906,0.2372845709323883,-0.17090699076652527,0.0,0.0,0.0,0.0,0.0,0.0,0.0,0.0,0.0,-0.0695900097489357,0.017868520691990852,0.13778617978096008,0.029679877683520317,0.018560508266091347,-9.39342212677002,0.00037025054916739464,-0.0002879815874621272,0.0004304000176489353,0,0,20.75564193725586,100.11700439453125,VNBIN,185,0,1777925855365987727
1777925855492387243,/dev/ttyUSB_VN300,543.700006,0,32896,0,0,false,false,false,-166.811279296875,0.23870538175106049,-0.17078500986099243,0.0,0.0,0.0,0.0,0.0,0.0,0.0,0.0,0.0,-0.07163004577159882,0.01787399873137474,0.13525231182575226,0.039423346519470215,0.03080116957426071,-9.391717910766602,0.00004703737795352936,0.00017791095888242126,-0.00023829936981201172,0,0,20.755868911743164,100.13700103759766,VNBIN,187,0,1777925855465701484
1777925855593393396,/dev/ttyUSB_VN300,543.800006,0,32896,0,0,false,false,false,-166.81497192382812,0.2342725396156311,-0.17091791331768036,0.0,0.0,0.0,0.0,0.0,0.0,0.0,0.0,0.0,-0.07063114643096924,0.01893262192606926,0.13652506470680237,0.027522042393684387,0.02514103427529335,-9.362947463989258,-0.00028969813138246536,0.00025458773598074913,-0.00018006889149546623,0,0,20.75583267211914,100.12500762939453,VNBIN,189,0,1777925855565422315
1777925855692361815,/dev/ttyUSB_VN300,543.9000060000001,0,32896,0,0,false,false,false,-166.8128662109375,0.23599444329738617,-0.1715817153453827,0.0,0.0,0.0,0.0,0.0,0.0,0.0,0.0,0.0,-0.07366768270730972,0.019989129155874252,0.1364120990037918,0.046500105410814285,0.017743898555636406,-9.388826370239258,-0.000277496874332428,-0.00034219189547002316,-0.00031321123242378235,0,0,20.755172729492188,100.1290054321289,VNBIN,191,0,1777925855666121966
1777925855792357481,/dev/ttyUSB_VN300,544.000005,0,32896,0,0,false,false,false,-166.8140869140625,0.2377471625804901,-0.17113889753818512,0.0,0.0,0.0,0.0,0.0,0.0,0.0,0.0,0.0,-0.07259295135736465,0.015749100595712662,0.1352013349533081,0.039706066250801086,0.023135630413889885,-9.383695602416992,-0.0001685861498117447,0.00026061537209898233,0.00013854587450623512,0,0,20.754467010498047,100.13700103759766,VNBIN,193,0,1777925855765839167
1777925855892364536,/dev/ttyUSB_VN300,544.100006,0,32896,0,0,false,false,false,-166.81272888183594,0.23733492195606232,-0.17173881828784943,0.0,0.0,0.0,0.0,0.0,0.0,0.0,0.0,0.0,-0.07568036019802094,0.01787613146007061,0.13263937830924988,0.02810252644121647,0.040260814130306244,-9.390642166137695,0.0006050546653568745,0.0006590759148821235,0.0005795974284410477,0,0,20.755037307739258,100.1290054321289,VNBIN,195,0,1777925855865535054
1777925855992366221,/dev/ttyUSB_VN300,544.200006,0,61568,0,0,false,false,false,-166.8109893798828,0.23640303313732147,-0.1720380187034607,0.0,0.0,0.0,0.0,0.0,0.0,0.0,0.0,0.0,-0.07366132736206055,0.018932320177555084,0.13517889380455017,0.051806408911943436,0.03597833961248398,-9.393476486206055,0.00031613605096936226,0.0002882732078433037,-0.000013424549251794815,0,0,20.754919052124023,100.12500762939453,VNBIN,197,0,1777925855966257928
1777925856092365813,/dev/ttyUSB_VN300,544.300006,0,32896,0,0,false,false,false,-166.8115692138672,0.23575223982334137,-0.17336919903755188,0.0,0.0,0.0,0.0,0.0,0.0,0.0,0.0,0.0,-0.07255736738443375,0.01468258909881115,0.1364230215549469,0.04415944218635559,0.027058567851781845,-9.403458595275879,0.00018518511205911636,-0.0003614112501963973,-0.00035662902519106865,0,0,20.75606918334961,100.12500762939453,VNBIN,199,0,1777925856065961111
1777925856192367238,/dev/ttyUSB_VN300,544.4000060000001,0,32896,0,0,false,false,false,-166.8146209716797,0.2345896065235138,-0.1720229983329773,0.0,0.0,0.0,0.0,0.0,0.0,0.0,0.0,0.0,-0.07458291947841644,0.01468194555491209,0.13511718809604645,0.04993550479412079,0.01554805226624012,-9.381258010864258,-0.0006456603296101093,0.00013196305371820927,-0.00017319200560450554,0,0,20.758207321166992,100.13700103759766,VNBIN,201,0,1777925856165671312
1777925856292365552,/dev/ttyUSB_VN300,544.500006,0,32896,0,0,false,false,false,-166.8141632080078,0.23352085053920746,-0.17250850796699524,0.0,0.0,0.0,0.0,0.0,0.0,0.0,0.0,0.0,-0.07158581912517548,0.01785815879702568,0.13893499970436096,0.034013018012046814,0.03301288187503815,-9.388030052185059,-0.00025366200134158134,0.0006926143541932106,0.00012428220361471176,0,0,20.75963592529297,100.14100646972656,VNBIN,203,0,1777925856266381500
1777925856392376977,/dev/ttyUSB_VN300,544.600006,0,128,0,0,false,false,false,-166.81373596191406,0.23361606895923615,-0.17283295094966888,0.0,0.0,0.0,0.0,0.0,0.0,0.0,0.0,0.0,-0.06959854811429977,0.016813745722174644,0.13532614707946777,0.032588329166173935,0.019827712327241898,-9.395955085754395,0.0005927309393882751,0.0004378011217340827,0.0003120112232863903,0,0,20.758899688720703,100.1290054321289,VNBIN,205,0,1777925856366074202
1777925856492378106,/dev/ttyUSB_VN300,544.700006,0,128,0,0,false,false,false,-166.81411743164062,0.23411907255649567,-0.17238251864910126,0.0,0.0,0.0,0.0,0.0,0.0,0.0,0.0,0.0,-0.0715375691652298,0.014677667059004307,0.1376907080411911,0.053164489567279816,0.015194491483271122,-9.365097045898438,0.0003248821012675762,0.00048494787188246846,-0.0004887497052550316,0,0,20.758777618408203,100.14100646972656,VNBIN,207,0,1777925856465788162
1777925856592369031,/dev/ttyUSB_VN300,544.800006,0,128,0,0,false,false,false,-166.81341552734375,0.23412643373012543,-0.17282897233963013,0.0,0.0,0.0,0.0,0.0,0.0,0.0,0.0,0.0,-0.0716007798910141,0.01786242239177227,0.13770754635334015,0.03771739453077316,0.030307142063975334,-9.398237228393555,-0.0002407957799732685,0.000014289049431681633,0.00026017893105745316,0,0,20.759469985961914,100.1290054321289,VNBIN,209,0,1777925856565517642
1777925856692374975,/dev/ttyUSB_VN300,544.9000060000001,0,128,0,0,false,false,false,-166.81399536132812,0.2345268279314041,-0.17262917757034302,0.0,0.0,0.0,0.0,0.0,0.0,0.0,0.0,0.0,-0.07257024198770523,0.016794368624687195,0.13888971507549286,0.04278825968503952,0.021516788750886917,-9.39383602142334,0.0002720216289162636,0.00011541054118424654,-0.00020330585539340973,0,0,20.75956916809082,100.12500762939453,VNBIN,211,0,1777925856666267053
1777925856792375956,/dev/ttyUSB_VN300,545.000006,0,128,0,0,false,false,false,-166.8098602294922,0.2337425947189331,-0.17374539375305176,0.0,0.0,0.0,0.0,0.0,0.0,0.0,0.0,0.0,-0.07361103594303131,0.017858467996120453,0.13762855529785156,0.036176253110170364,0.011842843145132065,-9.389896392822266,0.000055960845202207565,0.0005849685985594988,-0.0005833958275616169,0,0,20.75994110107422,100.12500762939453,VNBIN,213,0,1777925856765917865
1777925856892372881,/dev/ttyUSB_VN300,545.100005,0,128,0,0,false,false,false,-166.81491088867188,0.2347274124622345,-0.1721297651529312,0.0,0.0,0.0,0.0,0.0,0.0,0.0,0.0,0.0,-0.07261445373296738,0.016807055100798607,0.13520747423171997,0.03970785439014435,0.034149810671806335,-9.396199226379395,0.0005176505073904991,0.0009972446132451296,0.0002603665925562382,0,0,20.760761260986328,100.14100646972656,VNBIN,215,0,1777925856865633733
1777925856992387973,/dev/ttyUSB_VN300,545.200006,0,128,0,0,false,false,false,-166.8173065185547,0.23611821234226227,-0.17343665659427643,0.0,0.0,0.0,0.0,0.0,0.0,0.0,0.0,0.0,-0.07259968668222427,0.016803445294499397,0.13643473386764526,0.020639318972826004,0.03076060488820076,-9.388336181640625,-0.0005588289350271225,0.0005008239531889558,-0.00023726793006062508,0,0,20.75966453552246,100.12500762939453,VNBIN,217,0,1777925856966344181
1777925857092382399,/dev/ttyUSB_VN300,545.300006,0,128,0,0,false,false,false,-166.81787109375,0.23409834504127502,-0.1730724275112152,0.0,0.0,0.0,0.0,0.0,0.0,0.0,0.0,0.0,-0.07264778017997742,0.019983645528554916,0.1376793533563614,0.045834220945835114,0.03784843161702156,-9.392464637756348,-0.00013626273721456528,0.0003676156047731638,0.0005944003351032734,0,0,20.7597599029541,100.1290054321289,VNBIN,219,0,1777925857066043567
1777925857192382620,/dev/ttyUSB_VN300,545.4000060000001,0,128,0,0,false,false,false,-166.81900024414062,0.23364593088626862,-0.174699604511261,0.0,0.0,0.0,0.0,0.0,0.0,0.0,0.0,0.0,-0.07361725717782974,0.01891559548676014,0.13886156678199768,0.027666453272104263,0.031663913279771805,-9.387557983398438,0.00006676139310002327,-0.0002419506199657917,-0.00021017808467149734,0,0,20.759740829467773,100.12500762939453,VNBIN,221,0,1777925857165771047
1777925857292383582,/dev/ttyUSB_VN300,545.500006,0,32896,0,0,false,false,false,-166.81484985351562,0.23332346975803375,-0.17568598687648773,0.0,0.0,0.0,0.0,0.0,0.0,0.0,0.0,0.0,-0.07260600477457047,0.017860600724816322,0.13766790926456451,0.03248758614063263,0.028312649577856064,-9.40166187286377,0.0004710182547569275,-0.00015690550208091736,0.0008740713819861412,0,0,20.759502410888672,100.13700103759766,VNBIN,223,0,1777925857265474489
1777925857392385341,/dev/ttyUSB_VN300,545.600006,0,32896,0,0,false,false,false,-166.8172149658203,0.23533065617084503,-0.1733119934797287,0.0,0.0,0.0,0.0,0.0,0.0,0.0,0.0,0.0,-0.07055970281362534,0.01679764688014984,0.1389687955379486,0.04779321327805519,0.026364106684923172,-9.400690078735352,-0.00005571683868765831,0.0003697581705637276,-0.0002821739763021469,0,0,20.759580612182617,100.12500762939453,VNBIN,225,0,1777925857366167047
1777925857492390174,/dev/ttyUSB_VN300,545.700006,0,32896,0,0,false,false,false,-166.8196563720703,0.2344111204147339,-0.17379121482372284,0.0,0.0,0.0,0.0,0.0,0.0,0.0,0.0,0.0,-0.06956068426370621,0.017856933176517487,0.1402418166399002,0.029660196974873543,0.02020745351910591,-9.398140907287598,-0.00027218321338295937,0.00014439760707318783,-0.0006189155392348766,0,0,20.75921058654785,100.12500762939453,VNBIN,227,0,1777925857465896786
1777925857592403395,/dev/ttyUSB_VN300,545.800006,0,32896,0,0,false,false,false,-166.82566833496094,0.23547078669071198,-0.17464694380760193,0.0,0.0,0.0,0.0,0.0,0.0,0.0,0.0,0.0,-0.07457452267408371,0.01573360525071621,0.13757756352424622,0.04330861568450928,0.02646062523126602,-9.396652221679688,-0.0002523357979953289,-0.0002629974624142051,0.00010333908721804619,0,0,20.75975227355957,100.1290054321289,VNBIN,229,0,1777925857565601895
1777925857692395209,/dev/ttyUSB_VN300,545.9000060000001,0,32896,0,0,false,false,false,-166.8226318359375,0.23523861169815063,-0.17482449114322662,0.0,0.0,0.0,0.0,0.0,0.0,0.0,0.0,0.0,-0.07062505930662155,0.017872996628284454,0.13529223203659058,0.036787789314985275,0.03162370249629021,-9.392779350280762,-0.0005853930488228798,-0.00027533993124961853,0.00041687116026878357,0,0,20.759952545166016,100.13700103759766,VNBIN,231,0,1777925857666300102
1777925857792391042,/dev/ttyUSB_VN300,546.000006,0,32896,0,0,false,false,false,-166.828857421875,0.2322014719247818,-0.17467916011810303,0.0,0.0,0.0,0.0,0.0,0.0,0.0,0.0,0.0,-0.07054485380649567,0.016792822629213333,0.14019626379013062,0.033891938626766205,0.048389747738838196,-9.394052505493164,-0.0003954959101974964,0.000618293066509068,-0.0004771728999912739,0,0,20.76059913635254,100.1290054321289,VNBIN,233,0,1777925857766028914
1777925857892392097,/dev/ttyUSB_VN300,546.100006,0,32896,0,0,false,false,false,-166.8279266357422,0.23185676336288452,-0.17368587851524353,0.0,0.0,0.0,0.0,0.0,0.0,0.0,0.0,0.0,-0.07157965749502182,0.016799770295619965,0.1377018839120865,0.046392280608415604,0.0364600270986557,-9.407876968383789,-0.00005318084731698036,-0.00017598841805011034,-0.0004928321577608585,0,0,20.761014938354492,100.13700103759766,VNBIN,235,0,1777925857865742227
1777925857992398985,/dev/ttyUSB_VN300,546.200005,0,32896,0,0,false,false,false,-166.82640075683594,0.2313321977853775,-0.17528624832630157,0.0,0.0,0.0,0.0,0.0,0.0,0.0,0.0,0.0,-0.06959228962659836,0.015754729509353638,0.1340930312871933,0.04449443519115448,0.03914812579751015,-9.408937454223633,-0.0003603566437959671,0.00016611802857369184,0.0005236594006419182,0,0,20.761943817138672,100.13700103759766,VNBIN,237,0,1777925857965457706
1777925858092401559,/dev/ttyUSB_VN300,546.300006,0,32896,0,0,false,false,false,-166.82701110839844,0.23276951909065247,-0.17748557031154633,0.0,0.0,0.0,0.0,0.0,0.0,0.0,0.0,0.0,-0.07358401268720627,0.015737734735012054,0.13639000058174133,0.03630168363451958,0.045215725898742676,-9.407976150512695,-0.0005916678346693516,0.0001740009756758809,0.00023998785763978958,0,0,20.762577056884766,100.14100646972656,VNBIN,239,0,1777925858066158357
1777925858192401039,/dev/ttyUSB_VN300,546.4000060000001,0,32896,0,0,false,false,false,-166.82601928710938,0.233432799577713,-0.1775217354297638,0.0,0.0,0.0,0.0,0.0,0.0,0.0,0.0,0.0,-0.07264184206724167,0.0189246516674757,0.13644659519195557,0.04709063470363617,0.046914733946323395,-9.406760215759277,-0.00007859291508793831,0.00004916079342365265,0.0005836957134306431,0,0,20.762733459472656,100.14100646972656,VNBIN,241,0,1777925858165862207
1777925858292399335,/dev/ttyUSB_VN300,546.500006,0,32896,0,0,false,false,false,-166.83059692382812,0.23565486073493958,-0.17868997156620026,0.0,0.0,0.0,0.0,0.0,0.0,0.0,0.0,0.0,-0.07360278069972992,0.018908586353063583,0.14008945226669312,0.045342396944761276,0.02802138403058052,-9.384000778198242,-0.00027219532057642937,-0.00011255522258579731,-0.000028671231120824814,0,0,20.763765335083008,100.14100646972656,VNBIN,243,0,1777925858265578334
1777925858392428427,/dev/ttyUSB_VN300,546.600006,0,128,0,0,false,false,false,-166.8311309814453,0.2337590456008911,-0.1811806708574295,0.0,0.0,0.0,0.0,0.0,0.0,0.0,0.0,0.0,-0.07353366911411285,0.014666042290627956,0.13883936405181885,0.05221884697675705,0.03537118062376976,-9.425766944885254,-0.00013249972835183144,-0.0004376774886623025,-0.00035301875323057175,0,0,20.764318466186523,100.13700103759766,VNBIN,245,0,1777925858366284041
1777925858491404495,/dev/ttyUSB_VN300,546.700006,0,128,0,0,false,false,false,-166.8357696533203,0.23307360708713531,-0.1827244609594345,0.0,0.0,0.0,0.0,0.0,0.0,0.0,0.0,0.0,-0.07058082520961761,0.01785656437277794,0.13897480070590973,0.01693161018192768,0.038719259202480316,-9.412481307983398,0.00015932321548461914,-0.0009319442324340343,-0.00040610646829009056,0,0,20.763202667236328,100.1290054321289,VNBIN,247,0,1777925858465995280
1777925858592410611,/dev/ttyUSB_VN300,546.800006,0,128,0,0,false,false,false,-166.83338928222656,0.23119039833545685,-0.183320552110672,0.0,0.0,0.0,0.0,0.0,0.0,0.0,0.0,0.0,-0.06958169490098953,0.01891642063856125,0.14024744927883148,0.036519479006528854,0.030565360561013222,-9.401623725891113,-0.00028289109468460083,0.00005242554470896721,0.0006159222684800625,0,0,20.7624454498291,100.12500762939453,VNBIN,249,0,1777925858565704444
1777925858692405036,/dev/ttyUSB_VN300,546.9000060000001,0,128,0,0,false,false,false,-166.83877563476562,0.22974428534507751,-0.18290147185325623,0.0,0.0,0.0,0.0,0.0,0.0,0.0,0.0,0.0,-0.06949125975370407,0.013612473383545876,0.138991579413414,0.03132319077849388,0.04188806936144829,-9.401837348937988,0.0009614746086299419,-0.0004128910368308425,0.0002324259839951992,0,0,20.76230239868164,100.14100646972656,VNBIN,251,0,1777925858665427590
1777925858792416110,/dev/ttyUSB_VN300,547.000006,0,128,0,0,false,false,false,-166.83935546875,0.22924543917179108,-0.18213698267936707,0.0,0.0,0.0,0.0,0.0,0.0,0.0,0.0,0.0,-0.07153765112161636,0.014675451442599297,0.13769081234931946,0.01739151030778885,0.034504540264606476,-9.40951919555664,-0.00021612457931041718,-0.0005541070131585002,-0.00108320452272892,0,0,20.76224136352539,100.12500762939453,VNBIN,253,0,1777925858766111019
1777925858892411535,/dev/ttyUSB_VN300,547.100006,0,128,0,0,false,false,false,-166.84274291992188,0.22812896966934204,-0.1816781610250473,0.0,0.0,0.0,0.0,0.0,0.0,0.0,0.0,0.0,-0.07164274901151657,0.01998392678797245,0.1377190798521042,0.031683921813964844,0.023527901619672775,-9.39482307434082,-0.00001750793308019638,-0.0001806500367820263,-0.0002675042487680912,0,0,20.762187957763672,100.1290054321289,VNBIN,255,0,1777925858865836480
1777925858991411917,/dev/ttyUSB_VN300,547.200006,0,128,0,0,false,false,false,-166.8411102294922,0.22806082665920258,-0.17833548784255981,0.0,0.0,0.0,0.0,0.0,0.0,0.0,0.0,0.0,-0.07054504007101059,0.016792187467217445,0.14019659161567688,0.0248014647513628,0.03130654990673065,-9.390765190124512,0.00007317960262298584,0.00013243756256997585,-0.0007976819761097431,0,0,20.761503219604492,100.12500762939453,VNBIN,257,0,1777925858965557274
1777925859092419515,/dev/ttyUSB_VN300,547.300005,0,32896,0,0,false,false,false,-166.8417510986328,0.2274799644947052,-0.17901334166526794,0.0,0.0,0.0,0.0,0.0,0.0,0.0,0.0,0.0,-0.06757946312427521,0.017868423834443092,0.1378660351037979,0.037578050047159195,0.025113964453339577,-9.402878761291504,0.0007044831290841103,-0.00021426728926599026,-0.00015094643458724022,0,0,20.76141929626465,100.1290054321289,VNBIN,259,0,1777925859066292426
1777925859192417255,/dev/ttyUSB_VN300,547.4000060000001,0,32896,0,0,false,false,false,-166.8407440185547,0.22825904190540314,-0.18054638803005219,0.0,0.0,0.0,0.0,0.0,0.0,0.0,0.0,0.0,-0.071586012840271,0.017856594175100327,0.1389351487159729,0.046016059815883636,0.026573818176984787,-9.424083709716797,-0.0005127727054059505,0.0004142433754168451,-0.00019501661881804466,0,0,20.760971069335938,100.1290054321289,VNBIN,261,0,1777925859165961590
1777925859292418625,/dev/ttyUSB_VN300,547.500006,0,32896,0,0,false,false,false,-166.84439086914062,0.23209309577941895,-0.17805375158786774,0.0,0.0,0.0,0.0,0.0,0.0,0.0,0.0,0.0,-0.07061637192964554,0.01892528496682644,0.13775303959846497,0.021775921806693077,0.03047572821378708,-9.379140853881836,-0.0006842892616987228,0.0005343023221939802,-0.000216030515730381,0,0,20.760353088378906,100.13700103759766,VNBIN,263,0,1777925859265695699
1777925859392424069,/dev/ttyUSB_VN300,547.600006,0,32896,0,0,false,false,false,-166.84519958496094,0.23182736337184906,-0.17706674337387085,0.0,0.0,0.0,0.0,0.0,0.0,0.0,0.0,0.0,-0.07356694340705872,0.017844190821051598,0.14131079614162445,0.02744164504110813,0.017994141206145287,-9.397357940673828,0.0004903636872768402,-0.0002799432259052992,0.0003458387218415737,0,0,20.761119842529297,100.15300750732422,VNBIN,265,0,1777925859365387937
1777925859491420247,/dev/ttyUSB_VN300,547.700006,0,32896,0,0,false,false,false,-166.84690856933594,0.23303429782390594,-0.17374713718891144,0.0,0.0,0.0,0.0,0.0,0.0,0.0,0.0,0.0,-0.073539599776268,0.01572534628212452,0.14007191359996796,0.03352581709623337,0.013080058619379997,-9.358345031738281,-0.000046832021325826645,0.00019310065545141697,0.0010312339290976524,0,0,20.76041603088379,100.14100646972656,VNBIN,267,0,1777925859466091422
1777925859593429888,/dev/ttyUSB_VN300,547.800006,0,32896,0,0,false,false,false,-166.84939575195312,0.23330426216125488,-0.17522671818733215,0.0,0.0,0.0,0.0,0.0,0.0,0.0,0.0,0.0,-0.06854045391082764,0.017853545024991035,0.14150860905647278,0.0449860580265522,0.0181488748639822,-9.37700080871582,-0.00031185196712613106,0.00042271451093256474,0.0011415253393352032,0,0,20.75994873046875,100.13700103759766,VNBIN,269,0,1777925859565809049
1777925859692433789,/dev/ttyUSB_VN300,547.9000060000001,0,32896,0,0,false,false,false,-166.8502655029297,0.23355163633823395,-0.17355163395404816,0.0,0.0,0.0,0.0,0.0,0.0,0.0,0.0,0.0,-0.06961750239133835,0.019984519109129906,0.13902531564235687,0.04638734832406044,0.0343630351126194,-9.380087852478027,0.0006554215215146542,-0.000024494598619639874,0.00021062465384602547,0,0,20.75960922241211,100.14100646972656,VNBIN,271,0,1777925859665524602
1777925859792426547,/dev/ttyUSB_VN300,548.000006,0,51328,0,0,false,false,false,-166.8489532470703,0.2343311905860901,-0.17409053444862366,0.0,0.0,0.0,0.0,0.0,0.0,0.0,0.0,0.0,-0.07261443138122559,0.01680799201130867,0.13520728051662445,0.018971187993884087,0.020601950585842133,-9.394967079162598,0.0002422570250928402,-0.000014627701602876186,-0.000025209039449691772,0,0,20.75920867919922,100.14100646972656,VNBIN,273,0,1777925859766219717
1777925859892426806,/dev/ttyUSB_VN300,548.100006,0,32896,0,0,false,false,false,-166.85047912597656,0.2306891530752182,-0.17440709471702576,0.0,0.0,0.0,0.0,0.0,0.0,0.0,0.0,0.0,-0.07162151485681534,0.018924707546830177,0.13771308958530426,0.023794880136847496,0.025038963183760643,-9.396256446838379,-0.00015802821144461632,-0.0005001755198463798,-0.0002097361721098423,0,0,20.758808135986328,100.14100646972656,VNBIN,275,0,1777925859865943363
1777925859991438466,/dev/ttyUSB_VN300,548.200006,0,32896,0,0,false,false,false,-166.8523406982422,0.23059603571891785,-0.17425595223903656,0.0,0.0,0.0,0.0,0.0,0.0,0.0,0.0,0.0,-0.07162149250507355,0.018923774361610413,0.1377132385969162,0.03178409859538078,0.027397915720939636,-9.40268325805664,-0.000711104366928339,0.00011023657862097025,-0.00034011946991086006,0,0,20.759862899780273,100.14100646972656,VNBIN,277,0,1777925859965668879
1777925860092430694,/dev/ttyUSB_VN300,548.300006,0,32896,0,0,false,false,false,-166.8506622314453,0.22996960580348969,-0.17518211901187897,0.0,0.0,0.0,0.0,0.0,0.0,0.0,0.0,0.0,-0.0715438574552536,0.01573386788368225,0.13892361521720886,0.03388102352619171,0.03295206278562546,-9.379368782043457,-0.0001376001164317131,-0.00014029431622475386,0.0006009293720126152,0,0,20.76046371459961,100.14100646972656,VNBIN,279,0,1777925860066357327
1777925860192428397,/dev/ttyUSB_VN300,548.4000050000001,0,128,0,0,false,false,false,-166.8519744873047,0.23000815510749817,-0.17602908611297607,0.0,0.0,0.0,0.0,0.0,0.0,0.0,0.0,0.0,-0.06858481466770172,0.01786687783896923,0.137826070189476,0.04076293110847473,0.03222815319895744,-9.390905380249023,0.0001307106576859951,0.0003851737128570676,0.00048692990094423294,0,0,20.759796142578125,100.12500762939453,VNBIN,281,0,1777925860166071398
1777925860292437100,/dev/ttyUSB_VN300,548.500006,0,128,0,0,false,false,false,-166.84922790527344,0.22943884134292603,-0.1774052530527115,0.0,0.0,0.0,0.0,0.0,0.0,0.0,0.0,0.0,-0.0726204663515091,0.017864814028143883,0.13644056022167206,0.038097530603408813,0.03801453113555908,-9.388650894165039,-0.0004275958053767681,0.0007627203594893217,0.00044854404404759407,0,0,20.75958824157715,100.14100646972656,VNBIN,283,0,1777925860265775044
1777925860392308043,/dev/ttyUSB_VN300,548.600006,0,16512,0,0,false,false,false,-166.84930419921875,0.22991597652435303,-0.17700126767158508,0.0,0.0,0.0,0.0,0.0,0.0,0.0,0.0,0.0,-0.07061638683080673,0.018925873562693596,0.1377524435520172,0.03414641693234444,0.01692318730056286,-9.393221855163574,0.00014626095071434975,0.00014504545833915472,0.0000649578869342804,0,0,20.759714126586914,100.14100646972656,VNBIN,285,0,1777925860365483486
1777925860491305944,/dev/ttyUSB_VN300,548.700006,0,6272,0,0,false,false,false,-166.85089111328125,0.2297908365726471,-0.1749623566865921,0.0,0.0,0.0,0.0,0.0,0.0,0.0,0.0,0.0,-0.07266892492771149,0.0210453812032938,0.13768522441387177,0.048615701496601105,0.04074742645025253,-9.39427375793457,-0.00019245967268943787,0.000405661528930068,0.00017013400793075562,0,0,20.760364532470703,100.14100646972656,VNBIN,287,0,1777925860466191693
1777925860592326393,/dev/ttyUSB_VN300,548.800006,0,128,0,0,false,false,false,-166.85232543945312,0.22858916223049164,-0.1741747111082077,0.0,0.0,0.0,0.0,0.0,0.0,0.0,0.0,0.0,-0.07462266087532043,0.018914414569735527,0.13882209360599518,0.04781295359134674,0.027552511543035507,-9.411294937133789,0.00004969397559762001,0.0003808740293607116,0.00012937746942043304,0,0,20.758892059326172,100.1290054321289,VNBIN,289,0,1777925860565900876
1777925860692316985,/dev/ttyUSB_VN300,548.9000060000001,0,128,0,0,false,false,false,-166.85494995117188,0.2283410280942917,-0.1741112768650055,0.0,0.0,0.0,0.0,0.0,0.0,0.0,0.0,0.0,-0.07154367864131927,0.01573510654270649,0.1389235258102417,0.023632291704416275,0.016490379348397255,-9.380952835083008,0.0006208103150129318,0.0008436301723122597,0.0002858331426978111,0,0,20.758323669433594,100.1290054321289,VNBIN,291,0,1777925860665604559
1777925860792306244,/dev/ttyUSB_VN300,549.000006,0,16512,0,0,false,false,false,-166.8525848388672,0.22678102552890778,-0.1738457977771759,0.0,0.0,0.0,0.0,0.0,0.0,0.0,0.0,0.0,-0.07162162661552429,0.018924398347735405,0.13771328330039978,0.03055509179830551,0.03641991317272186,-9.3936767578125,0.0006119785830378532,0.0005399893270805478,0.000013625714927911758,0,0,20.75876808166504,100.13700103759766,VNBIN,293,0,1777925860766322544
1777925860892314632,/dev/ttyUSB_VN300,549.100006,0,4224,0,0,false,false,false,-166.85549926757812,0.22760361433029175,-0.17471349239349365,0.0,0.0,0.0,0.0,0.0,0.0,0.0,0.0,0.0,-0.07152900099754333,0.01573057658970356,0.14015108346939087,0.06710512936115265,0.023159770295023918,-9.390087127685547,0.0010943659581243992,-0.0004155585775151849,-0.00002995971590280533,0,0,20.759084701538086,100.1290054321289,VNBIN,295,0,1777925860866023042
1777925860991201810,/dev/ttyUSB_VN300,549.200006,0,41088,0,0,false,false,false,-166.8549346923828,0.228351429104805,-0.17355498671531677,0.0,0.0,0.0,0.0,0.0,0.0,0.0,0.0,0.0,-0.07160919904708862,0.016810154542326927,0.13524729013442993,0.0584198422729969,0.03903796523809433,-9.404412269592285,0.0005132271908223629,-0.00028603372629731894,-0.00043606478720903397,0,0,20.759353637695312,100.14100646972656,VNBIN,297,0,1777925860965751076
1777925861092458002,/dev/ttyUSB_VN300,549.300006,0,32896,0,0,false,false,false,-166.85609436035156,0.22885838150978088,-0.17010577023029327,0.0,0.0,0.0,0.0,0.0,0.0,0.0,0.0,0.0,-0.07158589363098145,0.017857836559414864,0.1389351487159729,0.050182122737169266,0.03193129599094391,-9.425886154174805,0.00009147869423031807,-0.00020281935576349497,-0.001236184500157833,0,0,20.7592716217041,100.14100646972656,VNBIN,299,0,1777925861065463093
1777925861192320667,/dev/ttyUSB_VN300,549.4000060000001,0,32896,0,0,false,false,false,-166.85633850097656,0.22834716737270355,-0.16932372748851776,0.0,0.0,0.0,0.0,0.0,0.0,0.0,0.0,0.0,-0.070509172976017,0.0157272070646286,0.14141800999641418,0.04777097329497337,0.02304493449628353,-9.377937316894531,-0.0004066638648509979,-0.000544847222045064,0.00015130965039134026,0,0,20.759719848632812,100.14100646972656,VNBIN,301,0,1777925861166159614
1777925861292323963,/dev/ttyUSB_VN300,549.500005,0,32896,0,0,false,false,false,-166.85531616210938,0.22767695784568787,-0.16722746193408966,0.0,0.0,0.0,0.0,0.0,0.0,0.0,0.0,0.0,-0.07053016126155853,0.016787949949502945,0.14142382144927979,0.04000595957040787,0.03315438702702522,-9.405661582946777,0.0002364087849855423,0.00017588736955076456,0.0000743442215025425,0,0,20.76105308532715,100.11300659179688,VNBIN,303,0,1777925861265876668
1777925861392323684,/dev/ttyUSB_VN300,549.600006,0,32896,0,0,false,false,false,-166.8533935546875,0.22825303673744202,-0.16652190685272217,0.0,0.0,0.0,0.0,0.0,0.0,0.0,0.0,0.0,-0.07258512824773788,0.016797663643956184,0.13766269385814667,0.02861194685101509,0.039359986782073975,-9.390060424804688,0.00003365660086274147,-0.00010894134175032377,0.0007369117811322212,0,0,20.76151466369629,100.1290054321289,VNBIN,305,0,1777925861365586388
1777925861492351758,/dev/ttyUSB_VN300,549.700006,0,32896,0,0,false,false,false,-166.85350036621094,0.22779516875743866,-0.16631858050823212,0.0,0.0,0.0,0.0,0.0,0.0,0.0,0.0,0.0,-0.07160703837871552,0.018918629735708237,0.13894078135490417,0.031857624650001526,0.03753024339675903,-9.410449981689453,-0.001056823879480362,-0.00026638549752533436,0.00011949846521019936,0,0,20.761024475097656,100.1290054321289,VNBIN,307,0,1777925861466329243
1777925861592326109,/dev/ttyUSB_VN300,549.800006,0,32896,0,0,false,false,false,-166.85191345214844,0.2292773574590683,-0.16489890217781067,0.0,0.0,0.0,0.0,0.0,0.0,0.0,0.0,0.0,-0.07361973077058792,0.016805250197649002,0.13516798615455627,0.02680976688861847,0.029455916956067085,-9.384210586547852,-0.0004236171953380108,0.0006930233794264495,-0.00003965664654970169,0,0,20.760847091674805,100.14100646972656,VNBIN,309,0,1777925861566000074
1777925861692326886,/dev/ttyUSB_VN300,549.9000060000001,0,32896,0,0,false,false,false,-166.8473663330078,0.2287244200706482,-0.16528867185115814,0.0,0.0,0.0,0.0,0.0,0.0,0.0,0.0,0.0,-0.07461019605398178,0.016798874363303185,0.13635578751564026,0.0505886971950531,0.045878417789936066,-9.402714729309082,0.00004433048889040947,-0.0002203007461503148,0.0005919523537158966,0,0,20.760971069335938,100.14100646972656,VNBIN,311,0,1777925861665722238
1777925861792330589,/dev/ttyUSB_VN300,550.000006,0,128,0,0,false,false,false,-166.85028076171875,0.23013989627361298,-0.1649227887392044,0.0,0.0,0.0,0.0,0.0,0.0,0.0,0.0,0.0,-0.0706373080611229,0.019986366853117943,0.13775871694087982,0.029555801302194595,0.03418873995542526,-9.412250518798828,-0.00026297755539417267,-0.00048096105456352234,-0.00003079371526837349,0,0,20.76138687133789,100.1290054321289,VNBIN,313,0,1777925861766414223
1777925861892334403,/dev/ttyUSB_VN300,550.100006,0,128,0,0,false,false,false,-166.8515625,0.2293815314769745,-0.1656421571969986,0.0,0.0,0.0,0.0,0.0,0.0,0.0,0.0,0.0,-0.07055981457233429,0.016796737909317017,0.13896916806697845,0.02457549050450325,0.025668393820524216,-9.394674301147461,-0.0005971030332148075,0.00006303354166448116,0.000486182514578104,0,0,20.760915756225586,100.14100646972656,VNBIN,315,0,1777925861866132573
1777925861992332143,/dev/ttyUSB_VN300,550.200006,0,128,0,0,false,false,false,-166.849853515625,0.22953727841377258,-0.16449980437755585,0.0,0.0,0.0,0.0,0.0,0.0,0.0,0.0,0.0,-0.07462902367115021,0.01997031271457672,0.14005513489246368,0.03708641231060028,0.02641960047185421,-9.393270492553711,-0.0006121620535850525,-0.00034416711423546076,-0.00003876909613609314,0,0,20.760684967041016,100.13700103759766,VNBIN,317,0,1777925861965853459
1777925862092332050,/dev/ttyUSB_VN300,550.300006,0,128,0,0,false,false,false,-166.847412109375,0.2284301370382309,-0.1651458740234375,0.0,0.0,0.0,0.0,0.0,0.0,0.0,0.0,0.0,-0.07258486747741699,0.01679828390479088,0.13766264915466309,0.04570799693465233,0.03051338903605938,-9.392467498779297,0.00005556875839829445,0.00008685921784490347,0.0001427256502211094,0,0,20.760473251342773,100.14100646972656,VNBIN,319,0,1777925862065553901
1777925862191332099,/dev/ttyUSB_VN300,550.4000060000001,0,128,0,0,false,false,false,-166.8472442626953,0.22824455797672272,-0.16666722297668457,0.0,0.0,0.0,0.0,0.0,0.0,0.0,0.0,0.0,-0.07155010849237442,0.016790661960840225,0.14015667140483856,0.046948980540037155,-0.00015207217074930668,-9.38974380493164,0.00032678619027137756,0.0005769337294623256,0.00043201493099331856,0,0,20.761295318603516,100.1290054321289,VNBIN,321,0,1777925862166259108
1777925862292344234,/dev/ttyUSB_VN300,550.500006,0,128,0,0,false,false,false,-166.8460693359375,0.2301945984363556,-0.16736282408237457,0.0,0.0,0.0,0.0,0.0,0.0,0.0,0.0,0.0,-0.0716281458735466,0.01998000591993332,0.13894662261009216,0.029727790504693985,0.0273426603525877,-9.388654708862305,-0.0001973779872059822,-0.0003277177456766367,-0.0002738288603723049,0,0,20.760894775390625,100.14100646972656,VNBIN,323,0,1777925862265976162
1777925862392337715,/dev/ttyUSB_VN300,550.600005,0,128,0,0,false,false,false,-166.84521484375,0.2283170223236084,-0.1674242913722992,0.0,0.0,0.0,0.0,0.0,0.0,0.0,0.0,0.0,-0.07059529423713684,0.017863579094409943,0.1377468705177307,0.033327262848615646,0.011259907856583595,-9.396484375,0.00034405384212732315,0.0001291175140067935,-0.000060653313994407654,0,0,20.76008415222168,100.14100646972656,VNBIN,325,0,1777925862365694196
1777925862493346886,/dev/ttyUSB_VN300,550.700006,0,128,0,0,false,false,false,-166.8473663330078,0.22790835797786713,-0.16605287790298462,0.0,0.0,0.0,0.0,0.0,0.0,0.0,0.0,0.0,-0.07257840037345886,0.01574108935892582,0.13642922043800354,0.016701750457286835,0.017114955931901932,-9.404104232788086,-0.00016050459817051888,0.000019903178326785564,-0.0003759819082915783,0,0,20.759815216064453,100.1290054321289,VNBIN,327,0,1777925862466397644
1777925862592352417,/dev/ttyUSB_VN300,550.800006,0,32896,0,0,false,false,false,-166.84945678710938,0.2293650209903717,-0.16572482883930206,0.0,0.0,0.0,0.0,0.0,0.0,0.0,0.0,0.0,-0.07466068118810654,0.017869645729660988,0.13390648365020752,0.04069524630904198,0.011654684320092201,-9.37802791595459,0.00041749700903892517,-0.00005156174302101135,-0.00021057715639472008,0,0,20.760616302490234,100.14100646972656,VNBIN,329,0,1777925862566100938
1777925862692340546,/dev/ttyUSB_VN300,550.9000060000001,0,32896,0,0,false,false,false,-166.8521270751953,0.22983919084072113,-0.16599591076374054,0.0,0.0,0.0,0.0,0.0,0.0,0.0,0.0,0.0,-0.07157950848340988,0.016799475997686386,0.13770221173763275,0.035029783844947815,0.02609431743621826,-9.36879825592041,-0.00009143073111772537,0.00004095153417438269,-0.00025732023641467094,0,0,20.761449813842773,100.1290054321289,VNBIN,331,0,1777925862665816973
1777925862792345342,/dev/ttyUSB_VN300,551.000006,0,32896,0,0,false,false,false,-166.8496551513672,0.23210598528385162,-0.16739916801452637,0.0,0.0,0.0,0.0,0.0,0.0,0.0,0.0,0.0,-0.0705236867070198,0.015730151906609535,0.1401909738779068,0.047411754727363586,0.03611735254526138,-9.361563682556152,-0.00009757047519087791,-0.00022891710978001356,0.00023686233907938004,0,0,20.76131820678711,100.1290054321289,VNBIN,333,0,1777925862765529341
1777925862891348872,/dev/ttyUSB_VN300,551.100006,0,32896,0,0,false,false,false,-166.84555053710938,0.23086832463741302,-0.16569218039512634,0.0,0.0,0.0,0.0,0.0,0.0,0.0,0.0,0.0,-0.07358189672231674,0.01784844696521759,0.1400836557149887,0.040435031056404114,0.025603706017136574,-9.39215087890625,0.00037479307502508163,-0.0003564943326637149,-0.0003166212700307369,0,0,20.761369705200195,100.1290054321289,VNBIN,335,0,1777925862866244659
1777925862992345562,/dev/ttyUSB_VN300,551.200006,0,32896,0,0,false,false,false,-166.84820556640625,0.2318434715270996,-0.1676071286201477,0.0,0.0,0.0,0.0,0.0,0.0,0.0,0.0,0.0,-0.07151442021131516,0.01572350598871708,0.14137881994247437,0.028428856283426285,0.03982316330075264,-9.385987281799316,-0.0004760678857564926,0.000559853739105165,-0.00031196093186736107,0,0,20.762147903442383,100.1290054321289,VNBIN,337,0,1777925862965942749
1777925863092351358,/dev/ttyUSB_VN300,551.300006,0,32896,0,0,false,false,false,-166.8486328125,0.23146004974842072,-0.16664747893810272,0.0,0.0,0.0,0.0,0.0,0.0,0.0,0.0,0.0,-0.07060407102108002,0.01680910214781761,0.1352866291999817,0.027899710461497307,0.05094397813081741,-9.37478256225586,-0.0002665286883711815,-0.0008286194643005729,0.000268817413598299,0,0,20.76350212097168,100.1290054321289,VNBIN,339,0,1777925863065651877
