timestamp_ns,port,gps_tow,gps_week,ins_status_raw,ins_mode,ins_error,gnss_fix,gnss_compass_active,gnss_heading_aiding,yaw,pitch,roll,latitude,longitude,altitude,vel_north,vel_east,vel_down,att_uncertainty,pos_uncertainty,vel_uncertainty,mag_x,mag_y,mag_z,accel_x,accel_y,accel_z,gyro_x,gyro_y,gyro_z,gnss_num_sats,gnss_fix_type,temperature,pressure,last_async_header,messages_parsed,messages_dropped,timestamp_ns
1777792842795888555,/dev/ttyUSB_VN300,24765.050006,0,32896,0,0,false,false,false,163.3298797607422,0.1789519339799881,-0.16380451619625092,0.0,0.0,0.0,0.0,0.0,0.0,0.0,0.0,0.0,-0.08858907967805862,-0.04116133227944374,0.14919157326221466,0.030270108953118324,0.018735673278570175,-9.389273643493652,-0.0005986909382045269,-0.0005336010362952948,-0.00017349794507026672,0,0,22.694026947021484,100.88900756835938,VNBIN,45,0,1777792842769600396
1777792842896659438,/dev/ttyUSB_VN300,24765.150006,0,32896,0,0,false,false,false,163.33131408691406,0.17897002398967743,-0.16332677006721497,0.0,0.0,0.0,0.0,0.0,0.0,0.0,0.0,0.0,-0.08552492409944534,-0.04116348922252655,0.15177924931049347,0.0360356941819191,0.02737698145210743,-9.375946044921875,0.00014669960364699364,0.00026172545040026307,0.00006375694647431374,0,0,22.692550659179688,100.88900756835938,VNBIN,47,0,1777792842869334944
1777792842996683338,/dev/ttyUSB_VN300,24765.250006000002,0,32896,0,0,false,false,false,163.33377075195312,0.1800455003976822,-0.16184362769126892,0.0,0.0,0.0,0.0,0.0,0.0,0.0,0.0,0.0,-0.08649390190839767,-0.0433000884950161,0.15172801911830902,0.02816384844481945,0.026624048128724098,-9.357017517089844,-0.0002845027483999729,-0.00017313857097178698,0.0009343335404992104,0,0,22.69118309020996,100.88900756835938,VNBIN,49,0,1777792842969021935
1777792843096655423,/dev/ttyUSB_VN300,24765.350006,0,32896,0,0,false,false,false,163.3372344970703,0.1789269894361496,-0.16227024793624878,0.0,0.0,0.0,0.0,0.0,0.0,0.0,0.0,0.0,-0.08848758041858673,-0.04331238940358162,0.1541174203157425,0.016244549304246902,0.026237815618515015,-9.361616134643555,-0.00015182513743638992,-0.00008713360875844955,-0.00017349375411868095,0,0,22.691347122192383,100.86600494384766,VNBIN,51,0,1777792843069725077
1777792843196663434,/dev/ttyUSB_VN300,24765.450006000003,0,128,0,0,false,false,false,163.33639526367188,0.17732341587543488,-0.16286097466945648,0.0,0.0,0.0,0.0,0.0,0.0,0.0,0.0,0.0,-0.08849582076072693,-0.04437226057052612,0.15164320170879364,0.03634411469101906,0.02790503017604351,-9.408683776855469,0.00019282987341284752,-7.447553798556328e-6,-0.0001864936202764511,0,0,22.692350387573242,100.88900756835938,VNBIN,53,0,1777792843169455162
1777792843296662315,/dev/ttyUSB_VN300,24765.550006,0,128,0,0,false,false,false,163.33367919921875,0.17774957418441772,-0.16313450038433075,0.0,0.0,0.0,0.0,0.0,0.0,0.0,0.0,0.0,-0.0885661393404007,-0.04010426253080368,0.15289995074272156,0.032652631402015686,0.01923990808427334,-9.3824462890625,-0.0002518948167562485,-0.00023812009021639824,-0.0004135081544518471,0,0,22.692386627197266,100.87700653076172,VNBIN,55,0,1777792843269151487
1777792843396652122,/dev/ttyUSB_VN300,24765.650006,0,128,0,0,false,false,false,163.33705139160156,0.17732271552085876,-0.16460920870304108,0.0,0.0,0.0,0.0,0.0,0.0,0.0,0.0,0.0,-0.08649413287639618,-0.043300528079271317,0.15172836184501648,0.022875405848026276,0.03030174784362316,-9.371883392333984,-0.00035487161949276924,0.000659045297652483,0.00028895027935504913,0,0,22.691715240478516,100.88900756835938,VNBIN,57,0,1777792843369852981
1777792843496661985,/dev/ttyUSB_VN300,24765.750006000002,0,128,0,0,false,false,false,163.33477783203125,0.17904163897037506,-0.16307087242603302,0.0,0.0,0.0,0.0,0.0,0.0,0.0,0.0,0.0,-0.0875203013420105,-0.04329796880483627,0.15045391023159027,0.011643302626907825,0.03439026325941086,-9.379240036010742,-0.0006154528819024563,0.0002883074339479208,-0.00003332877531647682,0,0,22.692138671875,100.88900756835938,VNBIN,59,0,1777792843469587584
1777792843596687404,/dev/ttyUSB_VN300,24765.850006,0,128,0,0,false,false,false,163.33750915527344,0.1806369125843048,-0.16422440111637115,0.0,0.0,0.0,0.0,0.0,0.0,0.0,0.0,0.0,-0.08644507080316544,-0.04650035500526428,0.15047694742679596,0.01893756166100502,0.03451450169086456,-9.397709846496582,-0.00018883589655160904,0.0006572988349944353,-0.00044957641512155533,0,0,22.69160270690918,100.87700653076172,VNBIN,61,0,1777792843569340520
1777792843696721118,/dev/ttyUSB_VN300,24765.950006000003,0,128,0,0,false,false,false,163.33934020996094,0.1792907863855362,-0.1656007170677185,0.0,0.0,0.0,0.0,0.0,0.0,0.0,0.0,0.0,-0.08550375699996948,-0.042230166494846344,0.15177354216575623,0.028510943055152893,0.02914278395473957,-9.358169555664062,-0.00012898631393909454,-0.0000641942024230957,0.0004946934059262276,0,0,22.69091796875,100.88900756835938,VNBIN,63,0,1777792843670008884
1777792843796670055,/dev/ttyUSB_VN300,24766.050006,0,128,0,0,false,false,false,163.33920288085938,0.1792132556438446,-0.1636664718389511,0.0,0.0,0.0,0.0,0.0,0.0,0.0,0.0,0.0,-0.08448559790849686,-0.04329179227352142,0.1505730152130127,0.03670937567949295,0.02288897894322872,-9.37938117980957,-0.00009704660624265671,-0.00003860378637909889,0.0004409337416291237,0,0,22.690914154052734,100.88900756835938,VNBIN,65,0,1777792843769723543
1777792843896662381,/dev/ttyUSB_VN300,24766.150006,0,128,0,0,false,false,false,163.34072875976562,0.1784122884273529,-0.16379208862781525,0.0,0.0,0.0,0.0,0.0,0.0,0.0,0.0,0.0,-0.0864940658211708,-0.04329966753721237,0.15172773599624634,0.030403107404708862,0.020967528223991394,-9.385873794555664,-0.00011097360402345657,0.0003195464378222823,-0.000123695470392704,0,0,22.690628051757812,100.88900756835938,VNBIN,67,0,1777792843869451368
1777792843996932855,/dev/ttyUSB_VN300,24766.250006000002,0,128,0,0,false,false,false,163.33880615234375,0.17983126640319824,-0.1633090227842331,0.0,0.0,0.0,0.0,0.0,0.0,0.0,0.0,0.0,-0.08850876986980438,-0.0422433577477932,0.15412285923957825,0.04450598359107971,0.04830140620470047,-9.388164520263672,0.000013925135135650635,-0.00029262842144817114,0.00009195040911436081,0,0,22.690433502197266,100.89300537109375,VNBIN,69,0,1777792843969156711
1777792844096694662,/dev/ttyUSB_VN300,24766.350006,0,32896,0,0,false,false,false,163.34230041503906,0.17965567111968994,-0.16466476023197174,0.0,0.0,0.0,0.0,0.0,0.0,0.0,0.0,0.0,-0.08748427778482437,-0.04436926171183586,0.15168268978595734,0.031440503895282745,0.026171207427978516,-9.378708839416504,0.0002018841914832592,0.0006928607472218573,-0.0005602031014859676,0,0,22.690555572509766,100.88900756835938,VNBIN,71,0,1777792844069851224
1777792844196669413,/dev/ttyUSB_VN300,24766.450006000003,0,32896,0,0,false,false,false,163.33909606933594,0.17963267862796783,-0.16400137543678284,0.0,0.0,0.0,0.0,0.0,0.0,0.0,0.0,0.0,-0.08950728178024292,-0.04437404125928879,0.15160346031188965,0.02469717524945736,0.020711684599518776,-9.380002975463867,0.0002582976594567299,0.000313368858769536,0.00035881204530596733,0,0,22.691768646240234,100.87700653076172,VNBIN,73,0,1777792844169560456
1777792844296222368,/dev/ttyUSB_VN300,24766.550006,0,32896,0,0,false,false,false,163.33746337890625,0.17898140847682953,-0.16397345066070557,0.0,0.0,0.0,0.0,0.0,0.0,0.0,0.0,0.0,-0.08653663843870163,-0.04116453602910042,0.15173937380313873,0.021476563066244125,0.012903902679681778,-9.352067947387695,-0.0011046798899769783,-0.0005094178486615419,-0.0005274112336337566,0,0,22.692201614379883,100.88900756835938,VNBIN,75,0,1777792844269350615
1777792844396053489,/dev/ttyUSB_VN300,24766.650006,0,32896,0,0,false,false,false,163.3408203125,0.18084709346294403,-0.1626625955104828,0.0,0.0,0.0,0.0,0.0,0.0,0.0,0.0,0.0,-0.08745507150888443,-0.04437921568751335,0.15415175259113312,0.026369333267211914,0.032635435461997986,-9.382783889770508,-0.0003463136963546276,-0.0005719027249142528,0.00026741623878479004,0,0,22.692272186279297,100.88900756835938,VNBIN,77,0,1777792844369009940
1777792844496781650,/dev/ttyUSB_VN300,24766.750006000002,0,32896,0,0,false,false,false,163.3357391357422,0.179591104388237,-0.1620350331068039,0.0,0.0,0.0,0.0,0.0,0.0,0.0,0.0,0.0,-0.08855274319648743,-0.04223112761974335,0.15041989088058472,0.025480153039097786,0.02818354219198227,-9.379051208496094,-0.00010987650603055954,0.0000826158793643117,0.0003476971760392189,0,0,22.691791534423828,100.88900756835938,VNBIN,79,0,1777792844469707397
1777792844596679513,/dev/ttyUSB_VN300,24766.850006,0,32896,0,0,false,false,false,163.3369598388672,0.18175183236598969,-0.1631784588098526,0.0,0.0,0.0,0.0,0.0,0.0,0.0,0.0,0.0,-0.08953511714935303,-0.042242392897605896,0.15284885466098785,0.028753243386745453,0.03216545283794403,-9.369481086730957,0.0005353488959372044,-0.00031771452631801367,-0.000700775533914566,0,0,22.69245147705078,100.88900756835938,VNBIN,81,0,1777792844569412444
1777792844696694061,/dev/ttyUSB_VN300,24766.950006000003,0,32896,0,0,false,false,false,163.33804321289062,0.18394967913627625,-0.16422751545906067,0.0,0.0,0.0,0.0,0.0,0.0,0.0,0.0,0.0,-0.08848132938146591,-0.04437703639268875,0.15287743508815765,0.01668437570333481,0.04869331046938896,-9.375592231750488,-1.1380761861801147e-6,0.0001067458069883287,0.00035462621599435806,0,0,22.69209098815918,100.87700653076172,VNBIN,83,0,1777792844669120899
1777792844796024292,/dev/ttyUSB_VN300,24767.050006,0,32896,0,0,false,false,false,163.337646484375,0.18352732062339783,-0.1665080040693283,0.0,0.0,0.0,0.0,0.0,0.0,0.0,0.0,0.0,-0.08746964484453201,-0.044374480843544006,0.1529172658920288,0.02203843556344509,0.0331261083483696,-9.370244026184082,-0.0004104175604879856,-0.0005613053217530251,0.0003740503452718258,0,0,22.69162368774414,100.88900756835938,VNBIN,85,0,1777792844769849152
1777792844896765046,/dev/ttyUSB_VN300,24767.150006,0,128,0,0,false,false,false,163.3375244140625,0.1824527382850647,-0.1666000634431839,0.0,0.0,0.0,0.0,0.0,0.0,0.0,0.0,0.0,-0.08345168828964233,-0.04223574697971344,0.1543220430612564,0.023282509297132492,0.022978581488132477,-9.371217727661133,-0.00039552105590701103,0.00018766545690596104,-0.00016154488548636436,0,0,22.692062377929688,100.87700653076172,VNBIN,87,0,1777792844869553255
1777792844996002536,/dev/ttyUSB_VN300,24767.250006000002,0,128,0,0,false,false,false,163.3350067138672,0.1827077716588974,-0.16692490875720978,0.0,0.0,0.0,0.0,0.0,0.0,0.0,0.0,0.0,-0.08846009522676468,-0.04544522240757942,0.152871772646904,0.03219820559024811,0.021942423656582832,-9.37043285369873,-0.0003441758453845978,0.0003263499238528311,0.00046545080840587616,0,0,22.69223403930664,100.88900756835938,VNBIN,89,0,1777792844969284302
1777792845096705660,/dev/ttyUSB_VN300,24767.350006,0,128,0,0,false,false,false,163.33078002929688,0.18480385839939117,-0.16788500547409058,0.0,0.0,0.0,0.0,0.0,0.0,0.0,0.0,0.0,-0.08954990655183792,-0.042238444089889526,0.15161468088626862,0.0291910357773304,0.032526228576898575,-9.372919082641602,-0.00019974587485194206,0.0003104076604358852,0.00039810221642255783,0,0,22.692670822143555,100.88900756835938,VNBIN,91,0,1777792845068981905
1777792845196828319,/dev/ttyUSB_VN300,24767.450006000003,0,128,0,0,false,false,false,163.32933044433594,0.18512028455734253,-0.1665257066488266,0.0,0.0,0.0,0.0,0.0,0.0,0.0,0.0,0.0,-0.08851700276136398,-0.04330489784479141,0.15164892375469208,0.011539001017808914,0.019288109615445137,-9.371543884277344,0.00014492962509393692,0.0007165097049437463,-0.00026858551427721977,0,0,22.692974090576172,100.87700653076172,VNBIN,93,0,1777792845169673455
1777792845296766275,/dev/ttyUSB_VN300,24767.550006,0,128,0,0,false,false,false,163.33056640625,0.1838291883468628,-0.16656814515590668,0.0,0.0,0.0,0.0,0.0,0.0,0.0,0.0,0.0,-0.08746994286775589,-0.04437565058469772,0.15291732549667358,0.030797064304351807,0.03495066985487938,-9.368484497070312,0.00009128730744123459,-0.0004317137645557523,-0.0006838943809270859,0,0,22.692703247070312,100.88900756835938,VNBIN,95,0,1777792845269426891
1777792852234840161,/dev/ttyUSB_VN300,24774.500006000002,0,41088,0,0,false,false,false,163.3100128173828,0.1786060333251953,-0.16222475469112396,0.0,0.0,0.0,0.0,0.0,0.0,0.0,0.0,0.0,-0.0865296870470047,-0.04222513362765312,0.15049883723258972,0.01952129788696766,0.003591087879613042,-9.384074211120605,0.00006968947127461433,-0.0002044121501967311,0.00007130810990929604,0,0,22.68811798095703,100.88900756835938,VNBIN,45,0,1777792852219950012
1777792852335046450,/dev/ttyUSB_VN300,24774.600006,0,57472,0,0,false,false,false,163.3078155517578,0.1784430295228958,-0.16086915135383606,0.0,0.0,0.0,0.0,0.0,0.0,0.0,0.0,0.0,-0.08753444999456406,-0.043290670961141586,0.1492188572883606,0.01776491478085518,0.026051601395010948,-9.390003204345703,0.0002546398900449276,0.0004961790982633829,-0.00010925345122814178,0,0,22.688230514526367,100.89300537109375,VNBIN,47,0,1777792852319653152
1777792852435063572,/dev/ttyUSB_VN300,24774.700006000003,0,39040,0,0,false,false,false,163.31385803222656,0.181194007396698,-0.15991149842739105,0.0,0.0,0.0,0.0,0.0,0.0,0.0,0.0,0.0,-0.08645789325237274,-0.04437019303441048,0.15295664966106415,0.02760942094027996,0.03848901391029358,-9.370107650756836,0.0006497791036963463,-0.00040475395508110523,-0.0007484890520572662,0,0,22.688201904296875,100.88900756835938,VNBIN,49,0,1777792852419369495
1777792852535050268,/dev/ttyUSB_VN300,24774.800006,0,128,0,0,false,false,false,163.313232421875,0.18131783604621887,-0.1608336865901947,0.0,0.0,0.0,0.0,0.0,0.0,0.0,0.0,0.0,-0.08751168847084045,-0.04223523288965225,0.15292803943157196,0.030535638332366943,0.03201797232031822,-9.358880996704102,0.0001965407282114029,-0.000023102271370589733,-6.961636245250702e-6,0,0,22.68805694580078,100.89300537109375,VNBIN,51,0,1777792852519089117
1777792852635062205,/dev/ttyUSB_VN300,24774.900006,0,128,0,0,false,false,false,163.31748962402344,0.18282020092010498,-0.16053344309329987,0.0,0.0,0.0,0.0,0.0,0.0,0.0,0.0,0.0,-0.08750516921281815,-0.043298713862895966,0.1516880840063095,0.02816927805542946,0.03299015015363693,-9.351036071777344,0.000013452954590320587,0.00012645026436075568,0.0006160563789308071,0,0,22.687774658203125,100.87700653076172,VNBIN,53,0,1777792852619793518
1777792852735063771,/dev/ttyUSB_VN300,24775.000006000002,0,128,0,0,false,false,false,163.31884765625,0.1819792538881302,-0.1628299206495285,0.0,0.0,0.0,0.0,0.0,0.0,0.0,0.0,0.0,-0.08751177787780762,-0.04223527014255524,0.1529281735420227,0.027093688026070595,0.035500433295965195,-9.376410484313965,0.00037449318915605545,0.0006834255764260888,-0.0003927862271666527,0,0,22.688459396362305,100.87700653076172,VNBIN,55,0,1777792852719513621
1777792852835069634,/dev/ttyUSB_VN300,24775.100006,0,128,0,0,false,false,false,163.31698608398438,0.17859332263469696,-0.1601410210132599,0.0,0.0,0.0,0.0,0.0,0.0,0.0,0.0,0.0,-0.08855903148651123,-0.04116448760032654,0.15165960788726807,0.024120597168803215,0.023649683222174644,-9.397089004516602,0.0004126117564737797,-0.00043638888746500015,-0.0005143308080732822,0,0,22.688373565673828,100.88900756835938,VNBIN,57,0,1777792852819239872
1777792852934840163,/dev/ttyUSB_VN300,24775.200006000003,0,128,0,0,false,false,false,163.31787109375,0.17983761429786682,-0.15840736031532288,0.0,0.0,0.0,0.0,0.0,0.0,0.0,0.0,0.0,-0.0874905213713646,-0.04330342635512352,0.15292246639728546,0.010397927835583687,0.02026643417775631,-9.375783920288086,0.0013955342583358288,0.000021921703591942787,0.000016108620911836624,0,0,22.688026428222656,100.87700653076172,VNBIN,59,0,1777792852919929736
1777792853035092008,/dev/ttyUSB_VN300,24775.300006,0,128,0,0,false,false,false,163.32188415527344,0.17842674255371094,-0.160020649433136,0.0,0.0,0.0,0.0,0.0,0.0,0.0,0.0,0.0,-0.0855182558298111,-0.04222254082560539,0.15053845942020416,0.047484803944826126,0.03089657984673977,-9.382017135620117,0.0003690151497721672,-0.00021152652334421873,0.0000361013226211071,0,0,22.687503814697266,100.88200378417969,VNBIN,61,0,1777792853019652395
1777792853135065759,/dev/ttyUSB_VN300,24775.400006,0,128,0,0,false,false,false,163.32691955566406,0.17772193253040314,-0.15965434908866882,0.0,0.0,0.0,0.0,0.0,0.0,0.0,0.0,0.0,-0.08647271245718002,-0.044365059584379196,0.15172195434570312,0.032293662428855896,0.00770557951182127,-9.390572547912598,0.0004731561057269573,-0.00020619772840291262,-8.572358638048172e-6,0,0,22.6866455078125,100.88900756835938,VNBIN,63,0,1777792853119357146
1777792853235068233,/dev/ttyUSB_VN300,24775.500006000002,0,128,0,0,false,false,false,163.33016967773438,0.17697128653526306,-0.16114245355129242,0.0,0.0,0.0,0.0,0.0,0.0,0.0,0.0,0.0,-0.08651500940322876,-0.04222831875085831,0.15173347294330597,0.039301663637161255,0.02804509922862053,-9.368839263916016,-0.0002122274599969387,-0.00032662367448210716,-0.0001821601763367653,0,0,22.686962127685547,100.89300537109375,VNBIN,65,0,1777792853219091008
1777792853334851003,/dev/ttyUSB_VN300,24775.600006,0,128,0,0,false,false,false,163.33302307128906,0.1792738437652588,-0.1636177897453308,0.0,0.0,0.0,0.0,0.0,0.0,0.0,0.0,0.0,-0.08746781945228577,-0.04224800318479538,0.15663132071495056,0.0440509133040905,0.02065959945321083,-9.362274169921875,0.0004491475410759449,0.00011591525981202722,-0.0003999704495072365,0,0,22.688180923461914,100.87700653076172,VNBIN,67,0,1777792853319777706
1777792857581071726,/dev/ttyUSB_VN300,24779.850006,0,128,0,0,false,false,false,163.3308563232422,0.18098480999469757,-0.1747065633535385,0.0,0.0,0.0,0.0,0.0,0.0,0.0,0.0,0.0,-0.08650848269462585,-0.043294161558151245,0.1504937708377838,0.030739231035113335,0.040528975427150726,-9.379425048828125,-0.0009809690527617931,0.00016727927140891552,0.00023959530517458916,0,0,22.689680099487305,100.88200378417969,VNBIN,52,0,1777792857569886105
1777792857681074403,/dev/ttyUSB_VN300,24779.950006000003,0,128,0,0,false,false,false,163.33193969726562,0.1810741424560547,-0.17423692345619202,0.0,0.0,0.0,0.0,0.0,0.0,0.0,0.0,0.0,-0.08849561214447021,-0.0443706251680851,0.15164276957511902,0.0367530956864357,0.03382179141044617,-9.374359130859375,0.0012359041720628738,0.0004703130107372999,-0.0004151472821831703,0,0,22.690101623535156,100.87700653076172,VNBIN,54,0,1777792857669596745
1777792857781079044,/dev/ttyUSB_VN300,24780.050006,0,128,0,0,false,false,false,163.33181762695312,0.17825260758399963,-0.17256130278110504,0.0,0.0,0.0,0.0,0.0,0.0,0.0,0.0,0.0,-0.08751198649406433,-0.04223722591996193,0.15292823314666748,0.02554178424179554,0.042922720313072205,-9.385087966918945,0.0004990836605429649,-0.000872359611093998,-0.0002551455982029438,0,0,22.690671920776367,100.87700653076172,VNBIN,56,0,1777792857769298977
1777792857881090555,/dev/ttyUSB_VN300,24780.150006,0,128,0,0,false,false,false,163.32862854003906,0.17700858414173126,-0.1729874610900879,0.0,0.0,0.0,0.0,0.0,0.0,0.0,0.0,0.0,-0.08848754316568375,-0.04331119358539581,0.15411721169948578,0.04330940544605255,0.024012712761759758,-9.385735511779785,-0.00014806026592850685,-0.00009650178253650665,-0.00030227331444621086,0,0,22.690004348754883,100.87700653076172,VNBIN,58,0,1777792857869040858
1777792857981080751,/dev/ttyUSB_VN300,24780.250006000002,0,32896,0,0,false,false,false,163.32884216308594,0.1792464703321457,-0.1713545024394989,0.0,0.0,0.0,0.0,0.0,0.0,0.0,0.0,0.0,-0.08653636276721954,-0.041162554174661636,0.1517392098903656,0.035469330847263336,0.04786969721317291,-9.349028587341309,0.000020038336515426636,-0.000387494801543653,-0.000025917310267686844,0,0,22.68915557861328,100.88900756835938,VNBIN,60,0,1777792857969721352
1777792858081092928,/dev/ttyUSB_VN300,24780.350006,0,32896,0,0,false,false,false,163.32891845703125,0.17913886904716492,-0.1688336879014969,0.0,0.0,0.0,0.0,0.0,0.0,0.0,0.0,0.0,-0.08549715578556061,-0.04329194501042366,0.15053315460681915,0.02819058671593666,0.029624061658978462,-9.39885425567627,-0.0005304515361785889,0.0002744226949289441,-0.00003372645005583763,0,0,22.688928604125977,100.90100860595703,VNBIN,62,0,1777792858069458825
1777792858181077513,/dev/ttyUSB_VN300,24780.450006000003,0,32896,0,0,false,false,false,163.33184814453125,0.17803384363651276,-0.1664072722196579,0.0,0.0,0.0,0.0,0.0,0.0,0.0,0.0,0.0,-0.08746941387653351,-0.044372837990522385,0.15291714668273926,0.0353769026696682,0.017859473824501038,-9.381721496582031,0.000414515845477581,-0.00017248198855668306,-0.0005195052362978458,0,0,22.689579010009766,100.88900756835938,VNBIN,64,0,1777792858169161835
1777792858281094154,/dev/ttyUSB_VN300,24780.550006,0,32896,0,0,false,false,false,163.33460998535156,0.1799967885017395,-0.16767451167106628,0.0,0.0,0.0,0.0,0.0,0.0,0.0,0.0,0.0,-0.08752667158842087,-0.04223170503973961,0.15169380605220795,0.030002297833561897,0.027246765792369843,-9.36353588104248,-0.0002907044254243374,0.00024271977599710226,-0.00032937200739979744,0,0,22.689125061035156,100.88900756835938,VNBIN,66,0,1777792858269853200
1777792858381076424,/dev/ttyUSB_VN300,24780.650006,0,32896,0,0,false,false,false,163.33425903320312,0.18069607019424438,-0.17009304463863373,0.0,0.0,0.0,0.0,0.0,0.0,0.0,0.0,0.0,-0.0875413790345192,-0.042227715253829956,0.15045949816703796,0.04430251196026802,0.037916459143161774,-9.37863540649414,-0.0002217274159193039,0.00026492669712752104,0.00014949170872569084,0,0,22.689224243164062,100.87700653076172,VNBIN,68,0,1777792858369570284
1777792858481085046,/dev/ttyUSB_VN300,24780.750006000002,0,32896,0,0,false,false,false,163.33853149414062,0.17792102694511414,-0.17203228175640106,0.0,0.0,0.0,0.0,0.0,0.0,0.0,0.0,0.0,-0.08751209825277328,-0.04223727434873581,0.1529284119606018,0.02049310691654682,0.02859846130013466,-9.373591423034668,-0.0002897260710597038,-0.0008874072227627039,0.000720516312867403,0,0,22.690793991088867,100.88900756835938,VNBIN,70,0,1777792858469307183
1777792858581084872,/dev/ttyUSB_VN300,24780.850006,0,32896,0,0,false,false,false,163.340087890625,0.1791575402021408,-0.1708517223596573,0.0,0.0,0.0,0.0,0.0,0.0,0.0,0.0,0.0,-0.08645834773778915,-0.04437227547168732,0.15295712649822235,0.026603922247886658,0.0066579412668943405,-9.37541389465332,-0.00014484161511063576,0.00027690595015883446,-2.2943131625652313e-6,0,0,22.690303802490234,100.88900756835938,VNBIN,72,0,1777792858569989566
1777792858681087068,/dev/ttyUSB_VN300,24780.950006000003,0,32896,0,0,false,false,false,163.33419799804688,0.17706474661827087,-0.17061002552509308,0.0,0.0,0.0,0.0,0.0,0.0,0.0,0.0,0.0,-0.08952828496694565,-0.043304238468408585,0.1516086608171463,0.03719490021467209,0.02283361554145813,-9.361732482910156,0.00019549764692783356,0.0005711501580663025,-0.0009235097095370293,0,0,22.689441680908203,100.88900756835938,VNBIN,74,0,1777792858669708910
1777792858781110375,/dev/ttyUSB_VN300,24781.050006,0,32896,0,0,false,false,false,163.3346710205078,0.17740152776241302,-0.1695602685213089,0.0,0.0,0.0,0.0,0.0,0.0,0.0,0.0,0.0,-0.08550369739532471,-0.042226940393447876,0.15177300572395325,0.00890663918107748,-0.0017625088803470135,-9.384071350097656,0.00009938329458236694,0.00028817058773711324,0.00030534109100699425,0,0,22.687236785888672,100.88900756835938,VNBIN,76,0,1777792858769419975
1777792858881100886,/dev/ttyUSB_VN300,24781.150006,0,32896,0,0,false,false,false,163.33604431152344,0.1787540316581726,-0.1686493456363678,0.0,0.0,0.0,0.0,0.0,0.0,0.0,0.0,0.0,-0.08956390619277954,-0.042229242622852325,0.1503797024488449,0.024379156529903412,0.02477739378809929,-9.37545394897461,-0.00018210755661129951,-0.00016030739061534405,-0.00040762731805443764,0,0,22.687042236328125,100.87700653076172,VNBIN,78,0,1777792858869129226
1777792858981098879,/dev/ttyUSB_VN300,24781.250006000002,0,128,0,0,false,false,false,163.33871459960938,0.17783305048942566,-0.1681077480316162,0.0,0.0,0.0,0.0,0.0,0.0,0.0,0.0,0.0,-0.0855327621102333,-0.04221741110086441,0.14930425584316254,0.022419465705752373,0.027929428964853287,-9.400530815124512,0.00041108904406428337,-0.0005853149341419339,-0.0002233288250863552,0,0,22.686756134033203,100.88900756835938,VNBIN,80,0,1777792858969832795
1777792859081100019,/dev/ttyUSB_VN300,24781.350006,0,128,0,0,false,false,false,163.33859252929688,0.1786687821149826,-0.17085929214954376,0.0,0.0,0.0,0.0,0.0,0.0,0.0,0.0,0.0,-0.08448542654514313,-0.04328816756606102,0.15057271718978882,0.017011139541864395,0.04178762808442116,-9.398512840270996,-0.000029502902179956436,0.00040748168248683214,0.0000822930596768856,0,0,22.686542510986328,100.87700653076172,VNBIN,82,0,1777792859069556823
1777792859181100104,/dev/ttyUSB_VN300,24781.450006000003,0,128,0,0,false,false,false,163.33712768554688,0.17902471125125885,-0.17041067779064178,0.0,0.0,0.0,0.0,0.0,0.0,0.0,0.0,0.0,-0.08450005203485489,-0.04328378289937973,0.1493382453918457,0.019523445516824722,0.03012482076883316,-9.366083145141602,-0.00029579829424619675,0.00012197310570627451,-0.0014472948387265205,0,0,22.686500549316406,100.88900756835938,VNBIN,84,0,1777792859169275056
1777792859281093763,/dev/ttyUSB_VN300,24781.550006,0,128,0,0,false,false,false,163.33482360839844,0.17584672570228577,-0.1691647320985794,0.0,0.0,0.0,0.0,0.0,0.0,0.0,0.0,0.0,-0.08744166791439056,-0.046502791345119476,0.15167082846164703,0.030890271067619324,0.031868770718574524,-9.388416290283203,0.00035118917003273964,-0.0000909001100808382,0.00046719564124941826,0,0,22.687034606933594,100.88900756835938,VNBIN,86,0,1777792859268988714
1777792859381131552,/dev/ttyUSB_VN300,24781.650006,0,128,0,0,false,false,false,163.3332977294922,0.1761038452386856,-0.1679297834634781,0.0,0.0,0.0,0.0,0.0,0.0,0.0,0.0,0.0,-0.08747603744268417,-0.04330737516283989,0.15415659546852112,0.038789957761764526,0.0258073378354311,-9.389009475708008,0.0005834205076098442,-0.00041924859397113323,0.00009369431063532829,0,0,22.68757438659668,100.87700653076172,VNBIN,88,0,1777792859369675060
1777792859481120933,/dev/ttyUSB_VN300,24781.750006000002,0,128,0,0,false,false,false,163.33505249023438,0.17685440182685852,-0.16623938083648682,0.0,0.0,0.0,0.0,0.0,0.0,0.0,0.0,0.0,-0.08656398952007294,-0.03902815282344818,0.15298432111740112,0.04193410277366638,0.02822018414735794,-9.393523216247559,-0.0005041211843490601,0.0002903863787651062,0.0005555693060159683,0,0,22.686790466308594,100.87700653076172,VNBIN,90,0,1777792859469382681
1777792859581093666,/dev/ttyUSB_VN300,24781.850006,0,128,0,0,false,false,false,163.33523559570312,0.17849774658679962,-0.16652153432369232,0.0,0.0,0.0,0.0,0.0,0.0,0.0,0.0,0.0,-0.0885312408208847,-0.04329562932252884,0.15041381120681763,0.03488985449075699,0.026550209149718285,-9.375732421875,0.00042208097875118256,0.0004531766753643751,-0.00008399039506912231,0,0,22.687318801879883,100.88900756835938,VNBIN,92,0,1777792859569103506
1777792859681110288,/dev/ttyUSB_VN300,24781.950006000003,0,128,0,0,false,false,false,163.33523559570312,0.17927993834018707,-0.16606676578521729,0.0,0.0,0.0,0.0,0.0,0.0,0.0,0.0,0.0,-0.08553292602300644,-0.042218178510665894,0.1493041217327118,0.030916769057512283,0.02087339572608471,-9.38499641418457,0.000221173744648695,0.00028145703254267573,0.0004585650749504566,0,0,22.687763214111328,100.88900756835938,VNBIN,94,0,1777792859669828723
1777792859781113559,/dev/ttyUSB_VN300,24782.050006,0,128,0,0,false,false,false,163.33583068847656,0.17879891395568848,-0.16571152210235596,0.0,0.0,0.0,0.0,0.0,0.0,0.0,0.0,0.0,-0.08646442741155624,-0.04330601170659065,0.1541966050863266,0.016368702054023743,0.042702462524175644,-9.379857063293457,-0.0004376010037958622,-0.0007120314985513687,-0.0002660374157130718,0,0,22.68811798095703,100.87700653076172,VNBIN,96,0,1777792859769559641
1777792859881100884,/dev/ttyUSB_VN300,24782.150006,0,32896,0,0,false,false,false,163.33914184570312,0.17897838354110718,-0.1648089587688446,0.0,0.0,0.0,0.0,0.0,0.0,0.0,0.0,0.0,-0.0855834037065506,-0.04114210605621338,0.14684107899665833,0.026328882202506065,0.023449882864952087,-9.397294044494629,0.0006062556058168411,0.0005430887686088681,0.0006986074149608612,0,0,22.688230514526367,100.88900756835938,VNBIN,98,0,1777792859869238465
1777792859981096840,/dev/ttyUSB_VN300,24782.250006000002,0,32896,0,0,false,false,false,163.3421173095703,0.17816510796546936,-0.1655241996049881,0.0,0.0,0.0,0.0,0.0,0.0,0.0,0.0,0.0,-0.08550362288951874,-0.04222690686583519,0.1517728865146637,0.04758899658918381,0.036356642842292786,-9.37898063659668,-3.9208680391311646e-6,0.00010196061339229345,0.0002034129574894905,0,0,22.687427520751953,100.88900756835938,VNBIN,100,0,1777792859969942460
1777792860081109332,/dev/ttyUSB_VN300,24782.350006,0,32896,0,0,false,false,false,163.34011840820312,0.1782081574201584,-0.165190652012825,0.0,0.0,0.0,0.0,0.0,0.0,0.0,0.0,0.0,-0.08954913169145584,-0.04223402962088585,0.1516140103340149,0.024179905652999878,0.019736506044864655,-9.37924861907959,-0.0003437134437263012,-0.000055183074437081814,0.00024888571351766586,0,0,22.687767028808594,100.88900756835938,VNBIN,102,0,1777792860069652988
1777792860181110806,/dev/ttyUSB_VN300,24782.450006000003,0,32896,0,0,false,false,false,163.34364318847656,0.17817610502243042,-0.16516706347465515,0.0,0.0,0.0,0.0,0.0,0.0,0.0,0.0,0.0,-0.08248364925384521,-0.04221639409661293,0.15065765380859375,0.0493803396821022,0.024040190503001213,-9.367053985595703,0.0008384697139263153,0.0008404474938288331,-0.000023582950234413147,0,0,22.68653106689453,100.87700653076172,VNBIN,104,0,1777792860169370610
1777792860281116539,/dev/ttyUSB_VN300,24782.550006,0,32896,0,0,false,false,false,163.35003662109375,0.17890197038650513,-0.16423608362674713,0.0,0.0,0.0,0.0,0.0,0.0,0.0,0.0,0.0,-0.08650839328765869,-0.0432920940220356,0.15049335360527039,0.023786500096321106,0.018376080319285393,-9.375687599182129,0.00043202517554163933,0.00022654631175100803,0.0005078315734863281,0,0,22.686859130859375,100.88900756835938,VNBIN,106,0,1777792860269085712
1777792860381116272,/dev/ttyUSB_VN300,24782.650006,0,32896,0,0,false,false,false,163.3463592529297,0.1795808970928192,-0.16279883682727814,0.0,0.0,0.0,0.0,0.0,0.0,0.0,0.0,0.0,-0.08747740834951401,-0.04542902484536171,0.1504421979188919,0.0223910603672266,0.050634633749723434,-9.386701583862305,0.00006275344640016556,0.00011319690383970737,-0.00007511395961046219,0,0,22.685325622558594,100.88900756835938,VNBIN,108,0,1777792860369797484
1777792860481123283,/dev/ttyUSB_VN300,24782.750006000002,0,32896,0,0,false,false,false,163.3465118408203,0.17896956205368042,-0.1645396649837494,0.0,0.0,0.0,0.0,0.0,0.0,0.0,0.0,0.0,-0.08650010079145432,-0.04223186895251274,0.1529674082994461,0.027759520336985588,0.03296547010540962,-9.371927261352539,-0.0005024410784244537,0.000011054100468754768,0.0005888231098651886,0,0,22.68568229675293,100.90100860595703,VNBIN,110,0,1777792860469487735
1777792860581125738,/dev/ttyUSB_VN300,24782.850006,0,32896,0,0,false,false,false,163.345947265625,0.17893065512180328,-0.16624200344085693,0.0,0.0,0.0,0.0,0.0,0.0,0.0,0.0,0.0,-0.08449983596801758,-0.04328334331512451,0.14933793246746063,0.04139641299843788,0.01905546523630619,-9.398921012878418,-0.0004725158214569092,-0.00006289442535489798,0.0003694836050271988,0,0,22.685949325561523,100.88900756835938,VNBIN,112,0,1777792860569217616
1777792860681133694,/dev/ttyUSB_VN300,24782.950006000003,0,32896,0,0,false,false,false,163.3444366455078,0.17760536074638367,-0.16771189868450165,0.0,0.0,0.0,0.0,0.0,0.0,0.0,0.0,0.0,-0.0875198021531105,-0.04329266771674156,0.15045300126075745,0.02559102699160576,0.015267139300704002,-9.379884719848633,-0.00018701096996665,-0.0006388422334566712,-0.0002448097802698612,0,0,22.685752868652344,100.88900756835938,VNBIN,114,0,1777792860669949499
1777792860781129168,/dev/ttyUSB_VN300,24783.050006,0,32896,0,0,false,false,false,163.34585571289062,0.17561307549476624,-0.16840818524360657,0.0,0.0,0.0,0.0,0.0,0.0,0.0,0.0,0.0,-0.0884660854935646,-0.0443757101893425,0.15411117672920227,0.038304269313812256,0.03066105581820011,-9.379206657409668,0.00007688254117965698,-0.000602358253672719,0.0006987107917666435,0,0,22.686283111572266,100.88900756835938,VNBIN,116,0,1777792860769636528
1777792860881121216,/dev/ttyUSB_VN300,24783.150006,0,128,0,0,false,false,false,163.34756469726562,0.17668305337429047,-0.1693916916847229,0.0,0.0,0.0,0.0,0.0,0.0,0.0,0.0,0.0,-0.08753456920385361,-0.04328836873173714,0.14921922981739044,0.029966624453663826,0.02507820725440979,-9.38571548461914,0.00008754106238484383,0.0002587826456874609,-0.0007196981459856033,0,0,22.68604850769043,100.89300537109375,VNBIN,118,0,1777792860869344001
1777792860981129264,/dev/ttyUSB_VN300,24783.250006000002,0,128,0,0,false,false,false,163.34722900390625,0.1742008775472641,-0.17088492214679718,0.0,0.0,0.0,0.0,0.0,0.0,0.0,0.0,0.0,-0.08447060734033585,-0.0432920940220356,0.1518067866563797,0.019937433302402496,0.023241281509399414,-9.390362739562988,-0.0012055099941790104,-0.0003740329993888736,0.0002365591935813427,0,0,22.686084747314453,100.89300537109375,VNBIN,120,0,1777792860969081548
1777792861081137367,/dev/ttyUSB_VN300,24783.350006,0,128,0,0,false,false,false,163.34461975097656,0.1732252985239029,-0.170484259724617,0.0,0.0,0.0,0.0,0.0,0.0,0.0,0.0,0.0,-0.0855034738779068,-0.04222531244158745,0.1517729014158249,0.03048594295978546,0.0244321059435606,-9.37322998046875,-0.0005414183251559734,0.0006903986213728786,0.0001435144804418087,0,0,22.685604095458984,100.87700653076172,VNBIN,122,0,1777792861069774764
1777792861181122174,/dev/ttyUSB_VN300,24783.450006000003,0,128,0,0,false,false,false,163.3453369140625,0.17574571073055267,-0.17068985104560852,0.0,0.0,0.0,0.0,0.0,0.0,0.0,0.0,0.0,-0.08749046176671982,-0.04330138489603996,0.152922123670578,0.03175525739789009,0.030856270343065262,-9.35726547241211,0.0001585870049893856,1.9569415599107742e-7,-0.00009611668065190315,0,0,22.685274124145508,100.88900756835938,VNBIN,124,0,1777792861169495515
1777792861281111870,/dev/ttyUSB_VN300,24783.550006,0,128,0,0,false,false,false,163.34486389160156,0.1769920289516449,-0.17014409601688385,0.0,0.0,0.0,0.0,0.0,0.0,0.0,0.0,0.0,-0.08344456553459167,-0.04329266771674156,0.15308067202568054,0.03195206820964813,0.02632443606853485,-9.372014999389648,-0.000025989022105932236,-0.0005997427506372333,0.00017621181905269623,0,0,22.68399429321289,100.87700653076172,VNBIN,126,0,1777792861269209174
1777792861381133270,/dev/ttyUSB_VN300,24783.650006,0,128,0,0,false,false,false,163.34732055664062,0.17631648480892181,-0.1690860092639923,0.0,0.0,0.0,0.0,0.0,0.0,0.0,0.0,0.0,-0.0844852551817894,-0.04328569769859314,0.15057210624217987,0.021015921607613564,0.045908525586128235,-9.376335144042969,-0.00017829053103923798,-0.0006381785497069359,-0.00020290259271860123,0,0,22.683635711669922,100.88500213623047,VNBIN,128,0,1777792861369898723
1777792861481135966,/dev/ttyUSB_VN300,24783.750006000002,0,128,0,0,false,false,false,163.3466339111328,0.17484885454177856,-0.1673300415277481,0.0,0.0,0.0,0.0,0.0,0.0,0.0,0.0,0.0,-0.08544620871543884,-0.04436437785625458,0.1529955267906189,0.03284396603703499,0.006063978653401136,-9.374074935913086,0.00029858294874429703,-0.00032087392173707485,-0.0002408791333436966,0,0,22.683670043945312,100.89300537109375,VNBIN,130,0,1777792861469636900
1777792861581121199,/dev/ttyUSB_VN300,24783.850006,0,128,0,0,false,false,false,163.3455810546875,0.1763683408498764,-0.16838274896144867,0.0,0.0,0.0,0.0,0.0,0.0,0.0,0.0,0.0,-0.08756184577941895,-0.04115431383252144,0.15046435594558716,0.03519746661186218,0.029062863439321518,-9.387514114379883,-0.00019837915897369385,0.0005289676482789218,0.0005605076439678669,0,0,22.68313217163086,100.88500213623047,VNBIN,132,0,1777792861569346207
1777792861681129247,/dev/ttyUSB_VN300,24783.950006000003,0,128,0,0,false,false,false,163.3454132080078,0.17571790516376495,-0.17038986086845398,0.0,0.0,0.0,0.0,0.0,0.0,0.0,0.0,0.0,-0.0855390727519989,-0.04115231707692146,0.15054374933242798,0.023520518094301224,0.0289294496178627,-9.388126373291016,-0.0001637311652302742,-0.00013402383774518967,-0.00002720160409808159,0,0,22.68533706665039,100.88900756835938,VNBIN,134,0,1777792861670031127
1777792861781131129,/dev/ttyUSB_VN300,24784.050006,0,128,0,0,false,false,false,163.34713745117188,0.17739757895469666,-0.16997557878494263,0.0,0.0,0.0,0.0,0.0,0.0,0.0,0.0,0.0,-0.08655062317848206,-0.04115533456206322,0.15050435066223145,0.03914124146103859,0.02102903462946415,-9.375975608825684,0.0007344274781644344,0.00027478940319269896,-0.00011664070188999176,0,0,22.68645668029785,100.88900756835938,VNBIN,136,0,1777792861769745044
1777792861881135232,/dev/ttyUSB_VN300,24784.150006,0,32896,0,0,false,false,false,163.34707641601562,0.1768559366464615,-0.16962498426437378,0.0,0.0,0.0,0.0,0.0,0.0,0.0,0.0,0.0,-0.08547583222389221,-0.04435887560248375,0.1505271941423416,0.020465459674596786,0.038497719913721085,-9.360949516296387,-0.00017082085832953453,-0.00044562178663909435,-0.00021240487694740295,0,0,22.687244415283203,100.88200378417969,VNBIN,138,0,1777792861869471221
1777792861981144595,/dev/ttyUSB_VN300,24784.250006000002,0,32896,0,0,false,false,false,163.34620666503906,0.17556747794151306,-0.16925643384456635,0.0,0.0,0.0,0.0,0.0,0.0,0.0,0.0,0.0,-0.08751188218593597,-0.04223482683300972,0.15292780101299286,0.037536878138780594,0.01839889958500862,-9.380361557006836,0.0002512275241315365,0.0004677671240642667,-0.0003510485403239727,0,0,22.687509536743164,100.87700653076172,VNBIN,140,0,1777792861969199009
1777792862081151032,/dev/ttyUSB_VN300,24784.350006,0,32896,0,0,false,false,false,163.34188842773438,0.1747855246067047,-0.16809575259685516,0.0,0.0,0.0,0.0,0.0,0.0,0.0,0.0,0.0,-0.08750505745410919,-0.04329867288470268,0.15168792009353638,0.03417488560080528,0.02072150446474552,-9.390456199645996,0.0006199302151799202,0.00028325081802904606,0.00028284452855587006,0,0,22.687782287597656,100.87700653076172,VNBIN,142,0,1777792862069884652
1777792862181155358,/dev/ttyUSB_VN300,24784.450006000003,0,32896,0,0,false,false,false,163.340576171875,0.17357893288135529,-0.171860933303833,0.0,0.0,0.0,0.0,0.0,0.0,0.0,0.0,0.0,-0.08751185238361359,-0.04223530367016792,0.15292829275131226,0.04468078911304474,0.034463390707969666,-9.365341186523438,0.0003735939972102642,-0.0005720353219658136,-0.0003340221010148525,0,0,22.68819236755371,100.87700653076172,VNBIN,144,0,1777792862169594995
1777792862281141257,/dev/ttyUSB_VN300,24784.550006,0,32896,0,0,false,false,false,163.33912658691406,0.1754438430070877,-0.16874226927757263,0.0,0.0,0.0,0.0,0.0,0.0,0.0,0.0,0.0,-0.08655732125043869,-0.04009275138378143,0.15174470841884613,0.0412069633603096,0.025097135454416275,-9.371265411376953,0.000017900485545396805,-0.0007504158420488238,0.00013773934915661812,0,0,22.68798065185547,100.88900756835938,VNBIN,146,0,1777792862269323079
1777792862381150916,/dev/ttyUSB_VN300,24784.650006,0,57472,0,0,false,false,false,163.34312438964844,0.1765759438276291,-0.16819636523723602,0.0,0.0,0.0,0.0,0.0,0.0,0.0,0.0,0.0,-0.083501897752285,-0.04115481674671173,0.1518583446741104,0.030300648882985115,0.005032901652157307,-9.376932144165039,-0.00012172386050224304,-0.00026675534900277853,0.000493904110044241,0,0,22.686885833740234,100.88900756835938,VNBIN,148,0,1777792862369032127
1777792862481146316,/dev/ttyUSB_VN300,24784.750006000002,0,32896,0,0,false,false,false,163.34359741210938,0.1772262454032898,-0.16626793146133423,0.0,0.0,0.0,0.0,0.0,0.0,0.0,0.0,0.0,-0.08447903394699097,-0.04435238987207413,0.14933253824710846,0.04151127487421036,0.029317565262317657,-9.38910961151123,-0.0000351988710463047,-0.0002899653045460582,-0.00008672382682561874,0,0,22.68705940246582,100.87700653076172,VNBIN,150,0,1777792862469732047
1777792862581139679,/dev/ttyUSB_VN300,24784.850006,0,32896,0,0,false,false,false,163.3426055908203,0.17717260122299194,-0.16547907888889313,0.0,0.0,0.0,0.0,0.0,0.0,0.0,0.0,0.0,-0.08650193363428116,-0.044356297701597214,0.14925308525562286,0.03928685560822487,0.03642958402633667,-9.379463195800781,-0.00027270661666989326,0.0004715192480944097,0.00021665683016180992,0,0,22.687448501586914,100.87700653076172,VNBIN,152,0,1777792862569465168
1777792862681140468,/dev/ttyUSB_VN300,24784.950006000003,0,32896,0,0,false,false,false,163.34410095214844,0.17602640390396118,-0.16309581696987152,0.0,0.0,0.0,0.0,0.0,0.0,0.0,0.0,0.0,-0.08948583900928497,-0.04543856531381607,0.15159709751605988,0.028164029121398926,0.0227690190076828,-9.371095657348633,0.00024080323055386543,0.00034220621455460787,0.0002365359105169773,0,0,22.68804168701172,100.89300537109375,VNBIN,154,0,1777792862669183456
1777792862781154645,/dev/ttyUSB_VN300,24785.050006,0,57472,0,0,false,false,false,163.3403778076172,0.1808329075574875,-0.1611596643924713,0.0,0.0,0.0,0.0,0.0,0.0,0.0,0.0,0.0,-0.08453437685966492,-0.04008832946419716,0.1518235206604004,0.03283745050430298,0.040065865963697433,-9.383905410766602,0.00038208113983273506,-0.0000365992309525609,-0.0006194845773279667,0,0,22.686603546142578,100.87700653076172,VNBIN,156,0,1777792862769870154
1777792862880921415,/dev/ttyUSB_VN300,24785.150006,0,32896,0,0,false,false,false,163.33790588378906,0.18082496523857117,-0.1630910187959671,0.0,0.0,0.0,0.0,0.0,0.0,0.0,0.0,0.0,-0.08544617891311646,-0.044366754591464996,0.1529957801103592,0.02744138240814209,0.021085325628519058,-9.378376007080078,0.00016113417223095894,0.0002549126511439681,-0.0008362270891666412,0,0,22.685985565185547,100.88900756835938,VNBIN,158,0,1777792862869593405
1777792862981148315,/dev/ttyUSB_VN300,24785.250006000002,0,128,0,0,false,false,false,163.3367462158203,0.180461123585701,-0.16193082928657532,0.0,0.0,0.0,0.0,0.0,0.0,0.0,0.0,0.0,-0.08645109832286835,-0.04543234780430794,0.15171608328819275,0.029473409056663513,0.03053615614771843,-9.362970352172852,-0.000047359615564346313,0.0006966989603824914,0.00023576198145747185,0,0,22.686317443847656,100.88900756835938,VNBIN,160,0,1777792862969299508
1777792863081153956,/dev/ttyUSB_VN300,24785.350006,0,128,0,0,false,false,false,163.3368377685547,0.1782451719045639,-0.16196925938129425,0.0,0.0,0.0,0.0,0.0,0.0,0.0,0.0,0.0,-0.0844854786992073,-0.04328853264451027,0.1505727767944336,0.032792262732982635,0.038795940577983856,-9.398984909057617,0.00025676097720861435,-0.00028619414661079645,0.0005363766103982925,0,0,22.68699836730957,100.87700653076172,VNBIN,162,0,1777792863070000317
1777792863181152559,/dev/ttyUSB_VN300,24785.450006000003,0,128,0,0,false,false,false,163.33567810058594,0.17916898429393768,-0.16260676085948944,0.0,0.0,0.0,0.0,0.0,0.0,0.0,0.0,0.0,-0.08751961588859558,-0.04329308494925499,0.15045325458049774,0.0365830697119236,0.028470873832702637,-9.396665573120117,-0.0001154942438006401,0.00021660118363797665,0.00038581574335694313,0,0,22.68617820739746,100.89300537109375,VNBIN,164,0,1777792863169735586
1777792863281158237,/dev/ttyUSB_VN300,24785.550006,0,128,0,0,false,false,false,163.3387908935547,0.18106737732887268,-0.16316954791545868,0.0,0.0,0.0,0.0,0.0,0.0,0.0,0.0,0.0,-0.08855225890874863,-0.04222703352570534,0.15041914582252502,0.03527853637933731,0.03923996537923813,-9.376815795898438,-0.000769458245486021,-0.0002703714417293668,-0.000019673258066177368,0,0,22.686382293701172,100.88900756835938,VNBIN,166,0,1777792863269439170
1777792863381164711,/dev/ttyUSB_VN300,24785.650006,0,128,0,0,false,false,false,163.33895874023438,0.17916467785835266,-0.16528117656707764,0.0,0.0,0.0,0.0,0.0,0.0,0.0,0.0,0.0,-0.08746293187141418,-0.04543500393629074,0.15167658030986786,0.038949429988861084,0.030995167791843414,-9.358970642089844,-0.0004340498708188534,-0.0004314493853598833,-0.00048451777547597885,0,0,22.68792152404785,100.87700653076172,VNBIN,168,0,1777792863369150995
1777792863480918832,/dev/ttyUSB_VN300,24785.750006000002,0,12416,0,0,false,false,false,163.33877563476562,0.17653745412826538,-0.16505545377731323,0.0,0.0,0.0,0.0,0.0,0.0,0.0,0.0,0.0,-0.08345942944288254,-0.0432923249900341,0.1518467217683792,0.03763510659337044,0.03990567848086357,-9.37646770477295,0.00006298162043094635,-0.000039355712942779064,0.0006282487884163857,0,0,22.68848419189453,100.89300537109375,VNBIN,170,0,1777792863469863249
1777792863581149696,/dev/ttyUSB_VN300,24785.850006,0,128,0,0,false,false,false,163.33847045898438,0.17743940651416779,-0.16653886437416077,0.0,0.0,0.0,0.0,0.0,0.0,0.0,0.0,0.0,-0.08551031351089478,-0.041164327412843704,0.15301325917243958,0.02312103658914566,0.05026915669441223,-9.376607894897461,0.00026446906849741936,-0.00025908940006047487,0.00029922090470790863,0,0,22.689132690429688,100.87700653076172,VNBIN,172,0,1777792863569655426
1777792863681154355,/dev/ttyUSB_VN300,24785.950006000003,0,128,0,0,false,false,false,163.33544921875,0.17794406414031982,-0.16502165794372559,0.0,0.0,0.0,0.0,0.0,0.0,0.0,0.0,0.0,-0.09053163975477219,-0.042245376855134964,0.15404322743415833,0.028920838609337807,0.012522480450570583,-9.379461288452148,0.0005216887220740318,0.000287033268250525,-0.00033940980210900307,0,0,22.688232421875,100.87700653076172,VNBIN,174,0,1777792863669298029
1777792863781153125,/dev/ttyUSB_VN300,24786.050006,0,128,0,0,false,false,false,163.3402557373047,0.17957383394241333,-0.16332966089248657,0.0,0.0,0.0,0.0,0.0,0.0,0.0,0.0,0.0,-0.08442728221416473,-0.04330804571509361,0.15551075339317322,0.0391034334897995,0.019583897665143013,-9.386307716369629,-0.0011427728459239006,0.00002249807585030794,0.0008525904268026352,0,0,22.689559936523438,100.88900756835938,VNBIN,176,0,1777792863769987393
1777792863880918431,/dev/ttyUSB_VN300,24786.150006,0,32896,0,0,false,false,false,163.33837890625,0.17932423949241638,-0.16322757303714752,0.0,0.0,0.0,0.0,0.0,0.0,0.0,0.0,0.0,-0.08645808696746826,-0.0443706139922142,0.1529565155506134,0.03424135595560074,0.007804630324244499,-9.380058288574219,-0.00026016123592853546,0.0005514260847121477,0.0007452806457877159,0,0,22.688913345336914,100.88900756835938,VNBIN,178,0,1777792863869739366
1777792863980918202,/dev/ttyUSB_VN300,24786.250006000002,0,36992,0,0,false,false,false,163.33828735351562,0.18033184111118317,-0.16513633728027344,0.0,0.0,0.0,0.0,0.0,0.0,0.0,0.0,0.0,-0.08547597378492355,-0.04436013475060463,0.15052756667137146,0.03887566924095154,0.022138798609375954,-9.353053092956543,0.00012356508523225784,0.000014589633792638779,-0.000082388985902071,0,0,22.688955307006836,100.88200378417969,VNBIN,180,0,1777792863969428154
1777792864081166843,/dev/ttyUSB_VN300,24786.350006,0,32896,0,0,false,false,false,163.33950805664062,0.179671511054039,-0.16520889103412628,0.0,0.0,0.0,0.0,0.0,0.0,0.0,0.0,0.0,-0.0864725261926651,-0.044365473091602325,0.15172222256660461,0.014702323824167252,0.030437208712100983,-9.380043029785156,0.0002304469235241413,0.00015399162657558918,-0.0004573073238134384,0,0,22.68830108642578,100.87700653076172,VNBIN,182,0,1777792864069122979
1777792864180922335,/dev/ttyUSB_VN300,24786.450006000003,0,32896,0,0,false,false,false,163.34075927734375,0.17679838836193085,-0.16510352492332458,0.0,0.0,0.0,0.0,0.0,0.0,0.0,0.0,0.0,-0.08546767383813858,-0.043299898505210876,0.1530020385980606,0.01549285277724266,0.02550356276333332,-9.377520561218262,0.00015876861289143562,-0.00021353072952479124,0.0005981568247079849,0,0,22.68816375732422,100.87700653076172,VNBIN,184,0,1777792864169846140
1777792864280947327,/dev/ttyUSB_VN300,24786.550006,0,32896,0,0,false,false,false,163.33863830566406,0.17676956951618195,-0.1662319004535675,0.0,0.0,0.0,0.0,0.0,0.0,0.0,0.0,0.0,-0.08653780817985535,-0.04328460246324539,0.14802448451519012,0.03022291511297226,0.03633773326873779,-9.369348526000977,-0.0005144653841853142,0.00032626494066789746,0.00004308391362428665,0,0,22.68863296508789,100.88900756835938,VNBIN,186,0,1777792864269559187
1777792864380930227,/dev/ttyUSB_VN300,24786.650006,0,36992,0,0,false,false,false,163.3383331298828,0.1744059920310974,-0.16758283972740173,0.0,0.0,0.0,0.0,0.0,0.0,0.0,0.0,0.0,-0.0864710807800293,-0.04224258288741112,0.15543636679649353,0.034881096333265305,0.02580682560801506,-9.376190185546875,0.00037347758188843727,-0.001308971201069653,-0.0004758336581289768,0,0,22.688852310180664,100.87700653076172,VNBIN,188,0,1777792864369259068
1777792864480925812,/dev/ttyUSB_VN300,24786.750006000002,0,32896,0,0,false,false,false,163.33738708496094,0.17489415407180786,-0.1689135879278183,0.0,0.0,0.0,0.0,0.0,0.0,0.0,0.0,0.0,-0.08552493900060654,-0.04115996137261391,0.15177886188030243,0.033597107976675034,0.02494749426841736,-9.38965129852295,-0.00009456556290388107,-0.0001708181807771325,-0.00011288933455944061,0,0,22.68871307373047,100.88900756835938,VNBIN,190,0,1777792864469982655
1777792864580935304,/dev/ttyUSB_VN300,24786.850006,0,32896,0,0,false,false,false,163.33848571777344,0.17203378677368164,-0.1692894995212555,0.0,0.0,0.0,0.0,0.0,0.0,0.0,0.0,0.0,-0.08349372446537018,-0.040096160024404526,0.15433277189731598,0.03362343832850456,0.014987762086093426,-9.383365631103516,-0.00029481761157512665,-0.00012953171972185373,-0.00021285749971866608,0,0,22.68853759765625,100.87700653076172,VNBIN,192,0,1777792864569678924
1777792864680923500,/dev/ttyUSB_VN300,24786.950006000003,0,32896,0,0,false,false,false,163.34056091308594,0.1737179160118103,-0.16947495937347412,0.0,0.0,0.0,0.0,0.0,0.0,0.0,0.0,0.0,-0.08553963154554367,-0.0411556139588356,0.15054452419281006,0.021175909787416458,0.03198979049921036,-9.389349937438965,-0.00009282305836677551,-0.00016286270692944527,0.0005554212257266045,0,0,22.689067840576172,100.87700653076172,VNBIN,194,0,1777792864669400397
1777792864780935752,/dev/ttyUSB_VN300,24787.050006,0,51328,0,0,false,false,false,163.34169006347656,0.17463907599449158,-0.16903260350227356,0.0,0.0,0.0,0.0,0.0,0.0,0.0,0.0,0.0,-0.08650035411119461,-0.04223468527197838,0.1529681235551834,0.02331460453569889,0.026399515569210052,-9.384888648986816,-0.00015292735770344734,0.0004740277654491365,-0.00025488249957561493,0,0,22.689489364624023,100.87700653076172,VNBIN,196,0,1777792864769125204
1777792864880918411,/dev/ttyUSB_VN300,24787.150006,0,30848,0,0,false,false,false,163.3437957763672,0.1722726672887802,-0.16821973025798798,0.0,0.0,0.0,0.0,0.0,0.0,0.0,0.0,0.0,-0.08751188218593597,-0.042236488312482834,0.15292808413505554,0.0341649055480957,0.030154999345541,-9.36369514465332,-0.00028054462745785713,0.0004373921547085047,0.00015590200200676918,0,0,22.689674377441406,100.87700653076172,VNBIN,198,0,1777792864869801605
1777792864980932552,/dev/ttyUSB_VN300,24787.250006000002,0,12416,0,0,false,false,false,163.34432983398438,0.17260943353176117,-0.1701391339302063,0.0,0.0,0.0,0.0,0.0,0.0,0.0,0.0,0.0,-0.08550398051738739,-0.042229775339365005,0.1517733484506607,0.03143998235464096,0.02727956511080265,-9.356928825378418,-0.00047075096517801285,0.0000683559337630868,0.00009477837011218071,0,0,22.691131591796875,100.89300537109375,VNBIN,200,0,1777792864969523319
1777792865080937359,/dev/ttyUSB_VN300,24787.350006,0,6272,0,0,false,false,false,163.34226989746094,0.17216917872428894,-0.17073841392993927,0.0,0.0,0.0,0.0,0.0,0.0,0.0,0.0,0.0,-0.08752033859491348,-0.04329833388328552,0.15045396983623505,0.03815814107656479,0.01813521422445774,-9.366555213928223,-0.00022539077326655388,0.00025017571169883013,-0.00016024149954319,0,0,22.692745208740234,100.88900756835938,VNBIN,202,0,1777792865069237644
1777792865180945999,/dev/ttyUSB_VN300,24787.450006000003,0,10368,0,0,false,false,false,163.3386688232422,0.17619122564792633,-0.17199575901031494,0.0,0.0,0.0,0.0,0.0,0.0,0.0,0.0,0.0,-0.08550393581390381,-0.04223177582025528,0.15177398920059204,0.02262800931930542,0.041621334850788116,-9.389565467834473,-0.00048527540639042854,0.0005687724333256483,-0.0003842916339635849,0,0,22.693058013916016,100.88900756835938,VNBIN,204,0,1777792865169940268
1777792865280937881,/dev/ttyUSB_VN300,24787.550006,0,30848,0,0,false,false,false,163.33897399902344,0.1787136197090149,-0.17245057225227356,0.0,0.0,0.0,0.0,0.0,0.0,0.0,0.0,0.0,-0.08750550448894501,-0.043303102254867554,0.1516885906457901,0.030949775129556656,0.03532310575246811,-9.377988815307617,-0.0007517300546169281,0.0008132947841659188,0.000043153297156095505,0,0,22.69281578063965,100.88900756835938,VNBIN,206,0,1777792865269668260
1777792865380930669,/dev/ttyUSB_VN300,24787.650006,0,12416,0,0,false,false,false,163.34030151367188,0.179415762424469,-0.1717556118965149,0.0,0.0,0.0,0.0,0.0,0.0,0.0,0.0,0.0,-0.0854044258594513,-0.04650804027915001,0.15298524498939514,0.02777237258851528,0.028250178322196007,-9.377060890197754,-0.00023443065583705902,0.0010097783524543047,-0.00005620298907160759,0,0,22.69220733642578,100.88900756835938,VNBIN,208,0,1777792865369399511
1777792865480932958,/dev/ttyUSB_VN300,24787.750006000002,0,6272,0,0,false,false,false,163.3388214111328,0.17825037240982056,-0.17314748466014862,0.0,0.0,0.0,0.0,0.0,0.0,0.0,0.0,0.0,-0.08954311162233353,-0.043301478028297424,0.15037468075752258,0.03269919008016586,0.03137513995170593,-9.391471862792969,-0.00035788025707006454,-0.0006564551731571555,-0.000354147981852293,0,0,22.691234588623047,100.88900756835938,VNBIN,210,0,1777792865469102762
1777792865580929598,/dev/ttyUSB_VN300,24787.850006,0,39040,0,0,false,false,false,163.34222412109375,0.17892980575561523,-0.17377999424934387,0.0,0.0,0.0,0.0,0.0,0.0,0.0,0.0,0.0,-0.08754803240299225,-0.04116510599851608,0.15169981122016907,0.018892385065555573,0.015284297987818718,-9.400923728942871,-0.0007842192426323891,-0.00001851713750511408,-0.00015251338481903076,0,0,22.690698623657227,100.88900756835938,VNBIN,212,0,1777792865569807978
1777792865681110739,/dev/ttyUSB_VN300,24787.950006000003,0,51328,0,0,false,false,false,163.34068298339844,0.1804763674736023,-0.17225994169712067,0.0,0.0,0.0,0.0,0.0,0.0,0.0,0.0,0.0,-0.08450693637132645,-0.04222283884882927,0.15057872235774994,0.041958022862672806,0.03529039025306702,-9.373133659362793,-0.00026534171774983406,0.00013482681242749095,0.000517500564455986,0,0,22.690227508544922,100.87700653076172,VNBIN,214,0,1777792865669523081
1777792865780930528,/dev/ttyUSB_VN300,24788.050006,0,55424,0,0,false,false,false,163.34423828125,0.18302753567695618,-0.1696143001317978,0.0,0.0,0.0,0.0,0.0,0.0,0.0,0.0,0.0,-0.0865297019481659,-0.04222632944583893,0.15049903094768524,0.03636160492897034,0.028043696656823158,-9.38790512084961,0.00008815526962280273,0.0003554301802068949,0.00007018353790044785,0,0,22.689781188964844,100.87700653076172,VNBIN,216,0,1777792865769202165
1777792865880936409,/dev/ttyUSB_VN300,24788.150006,0,59520,0,0,false,false,false,163.3470916748047,0.18120020627975464,-0.16886098682880402,0.0,0.0,0.0,0.0,0.0,0.0,0.0,0.0,0.0,-0.0885314792394638,-0.04329809173941612,0.15041401982307434,0.024430206045508385,0.03692876547574997,-9.363021850585938,-0.0004558083601295948,-0.00044026016257703304,0.00008626794442534447,0,0,22.69021224975586,100.88900756835938,VNBIN,218,0,1777792865869909937
1777792865980940216,/dev/ttyUSB_VN300,24788.250006000002,0,39040,0,0,false,false,false,163.35031127929688,0.17905429005622864,-0.1695128083229065,0.0,0.0,0.0,0.0,0.0,0.0,0.0,0.0,0.0,-0.08746939897537231,-0.04437283053994179,0.15291711688041687,0.032460764050483704,0.027413826435804367,-9.38780689239502,-0.0001993575133383274,0.00036307150730863214,0.0006047142669558525,0,0,22.689390182495117,100.88900756835938,VNBIN,220,0,1777792865969636447
1777792866080938505,/dev/ttyUSB_VN300,24788.350006,0,51328,0,0,false,false,false,163.35585021972656,0.1762213408946991,-0.16748853027820587,0.0,0.0,0.0,0.0,0.0,0.0,0.0,0.0,0.0,-0.08552488684654236,-0.04115993529558182,0.15177875757217407,0.018882054835557938,0.031529467552900314,-9.366064071655273,0.0004093269817531109,-0.00018302653916180134,-0.00042081763967871666,0,0,22.68926239013672,100.88900756835938,VNBIN,222,0,1777792866069340624
1777792866180936701,/dev/ttyUSB_VN300,24788.450006000003,0,55424,0,0,false,false,false,163.35784912109375,0.17742976546287537,-0.16871915757656097,0.0,0.0,0.0,0.0,0.0,0.0,0.0,0.0,0.0,-0.08947774022817612,-0.04438112676143646,0.15407176315784454,0.02594096213579178,0.036347392946481705,-9.365030288696289,-0.00017725210636854172,-0.0003617613110691309,0.0003219572827219963,0,0,22.690279006958008,100.87700653076172,VNBIN,224,0,1777792866169051597
1777792866280938156,/dev/ttyUSB_VN300,24788.550006,0,59520,0,0,false,false,false,163.3604736328125,0.17733679711818695,-0.16887860000133514,0.0,0.0,0.0,0.0,0.0,0.0,0.0,0.0,0.0,-0.08846642076969147,-0.04437974840402603,0.15411171317100525,0.019646532833576202,0.020490698516368866,-9.384488105773926,0.00013682805001735687,0.0005543733714148402,0.0004115370102226734,0,0,22.690715789794922,100.88900756835938,VNBIN,226,0,1777792866269765036
1777792866380950871,/dev/ttyUSB_VN300,24788.650006,0,39040,0,0,false,false,false,163.35940551757812,0.1783508062362671,-0.17111347615718842,0.0,0.0,0.0,0.0,0.0,0.0,0.0,0.0,0.0,-0.08850225806236267,-0.04330719634890556,0.152882918715477,0.028520572930574417,0.02833818644285202,-9.379376411437988,-0.0004235329106450081,-0.00015333015471696854,-0.00018069660291075706,0,0,22.690717697143555,100.87700653076172,VNBIN,228,0,1777792866369474935
1777792866480946863,/dev/ttyUSB_VN300,24788.750006000002,0,45184,0,0,false,false,false,163.36032104492188,0.17927421629428864,-0.17232266068458557,0.0,0.0,0.0,0.0,0.0,0.0,0.0,0.0,0.0,-0.08452177047729492,-0.042218901216983795,0.14934462308883667,0.025497153401374817,0.019307106733322144,-9.397212028503418,0.0001475699245929718,0.00003344507422298193,-0.00042833108454942703,0,0,22.690776824951172,100.88900756835938,VNBIN,230,0,1777792866469188963
1777792866580960448,/dev/ttyUSB_VN300,24788.850006,0,34944,0,0,false,false,false,163.3624267578125,0.1798509806394577,-0.17213740944862366,0.0,0.0,0.0,0.0,0.0,0.0,0.0,0.0,0.0,-0.0864727720618248,-0.04436831176280975,0.1517225056886673,0.02942838706076145,0.035465121269226074,-9.38211441040039,0.000017113983631134033,0.000178796355612576,-0.0005925321020185947,0,0,22.691570281982422,100.87700653076172,VNBIN,232,0,1777792866569911180
1777792866680957552,/dev/ttyUSB_VN300,24788.950006000003,0,6272,0,0,false,false,false,163.3634796142578,0.1798008680343628,-0.17320629954338074,0.0,0.0,0.0,0.0,0.0,0.0,0.0,0.0,0.0,-0.0885024219751358,-0.043308109045028687,0.15288330614566803,0.053415391594171524,0.029281601309776306,-9.374505996704102,0.0003546527586877346,0.00031785655301064253,0.00003344099968671799,0,0,22.69190216064453,100.87700653076172,VNBIN,234,0,1777792866669655320
1777792866780951600,/dev/ttyUSB_VN300,24789.050006,0,20608,0,0,false,false,false,163.368896484375,0.1806933879852295,-0.1734759658575058,0.0,0.0,0.0,0.0,0.0,0.0,0.0,0.0,0.0,-0.08551838994026184,-0.042225804179906845,0.15053912997245789,0.025232821702957153,0.03602740913629532,-9.40174674987793,-0.00015011755749583244,0.00013318832498043776,0.00034373439848423004,0,0,22.69140625,100.88900756835938,VNBIN,236,0,1777792866769330145
1777792866880979092,/dev/ttyUSB_VN300,24789.150006,0,30848,0,0,false,false,false,163.36944580078125,0.18083319067955017,-0.1712009459733963,0.0,0.0,0.0,0.0,0.0,0.0,0.0,0.0,0.0,-0.08754128962755203,-0.04222934693098068,0.15045961737632751,0.02510913647711277,0.03648393601179123,-9.366812705993652,-0.00045440811663866043,0.00008479307871311903,0.0004252665676176548,0,0,22.69162940979004,100.88900756835938,VNBIN,238,0,1777792866869034914
1777792866980962011,/dev/ttyUSB_VN300,24789.250006000002,0,4224,0,0,false,false,false,163.37217712402344,0.18014325201511383,-0.17247417569160461,0.0,0.0,0.0,0.0,0.0,0.0,0.0,0.0,0.0,-0.08647940307855606,-0.04330486059188843,0.15296263992786407,0.016974156722426414,0.020402010530233383,-9.359026908874512,0.00013947021216154099,0.0004056277684867382,-0.00014124298468232155,0,0,22.691801071166992,100.87700653076172,VNBIN,240,0,1777792866969734371
1777792867080951281,/dev/ttyUSB_VN300,24789.350006,0,6272,0,0,false,false,false,163.3745574951172,0.18071679770946503,-0.17253568768501282,0.0,0.0,0.0,0.0,0.0,0.0,0.0,0.0,0.0,-0.08846670389175415,-0.044381413608789444,0.15411189198493958,0.027591679245233536,0.011524947360157967,-9.378690719604492,0.0002938504330813885,-6.3925981521606445e-6,-0.00012571271508932114,0,0,22.692340850830078,100.90100860595703,VNBIN,242,0,1777792867069457252
1777792867180961681,/dev/ttyUSB_VN300,24789.450006000003,0,20608,0,0,false,false,false,163.37380981445312,0.1801123172044754,-0.17479659616947174,0.0,0.0,0.0,0.0,0.0,0.0,0.0,0.0,0.0,-0.08749105036258698,-0.04330706223845482,0.15292277932167053,0.027427826076745987,0.020289277657866478,-9.381460189819336,0.0005901176482439041,-0.0002465329598635435,0.00019477354362607002,0,0,22.692642211914062,100.88900756835938,VNBIN,244,0,1777792867169174744
