timestamp_ns,port,gps_tow,gps_week,ins_status_raw,ins_mode,ins_error,gnss_fix,gnss_compass_active,gnss_heading_aiding,yaw,pitch,roll,latitude,longitude,altitude,vel_north,vel_east,vel_down,att_uncertainty,pos_uncertainty,vel_uncertainty,mag_x,mag_y,mag_z,accel_x,accel_y,accel_z,gyro_x,gyro_y,gyro_z,gnss_num_sats,gnss_fix_type,temperature,pressure,last_async_header,messages_parsed,messages_dropped,timestamp_ns
1777874400022680834,/dev/ttyUSB_VN300,9820.650006,0,2176,0,0,false,false,false,-167.20877075195312,0.21218322217464447,-0.16730071604251862,0.0,0.0,0.0,0.0,0.0,0.0,0.0,0.0,0.0,-0.07048944383859634,0.012888411991298199,0.1427375078201294,0.03589679300785065,0.030465908348560333,-9.40785026550293,-0.000560426153242588,0.0008055683574639261,0.00016199564561247826,0,0,21.82716941833496,100.35900115966797,VNBIN,2909,0,1777874400016612891
1777874400123401430,/dev/ttyUSB_VN300,9820.750006,0,24704,0,0,false,false,false,-167.20233154296875,0.21170498430728912,-0.16689874231815338,0.0,0.0,0.0,0.0,0.0,0.0,0.0,0.0,0.0,-0.0694805383682251,0.012889544479548931,0.1427769809961319,0.029430605471134186,0.039315417408943176,-9.363592147827148,0.0003559337928891182,-0.00005361257353797555,-0.0003637615591287613,0,0,21.827646255493164,100.35900115966797,VNBIN,2911,0,1777874400117333654
1777874400223146376,/dev/ttyUSB_VN300,9820.850006,0,10368,0,0,false,false,false,-167.20156860351562,0.21429836750030518,-0.16830073297023773,0.0,0.0,0.0,0.0,0.0,0.0,0.0,0.0,0.0,-0.07253412157297134,0.015011223033070564,0.14390037953853607,0.044401269406080246,0.034365516155958176,-9.381125450134277,0.0005175154656171799,0.00019514525774866343,0.0000407584011554718,0,0,21.825984954833984,100.35900115966797,VNBIN,2913,0,1777874400217075359
1777874400322802747,/dev/ttyUSB_VN300,9820.950006000001,0,14464,0,0,false,false,false,-167.198486328125,0.21527227759361267,-0.16640347242355347,0.0,0.0,0.0,0.0,0.0,0.0,0.0,0.0,0.0,-0.07352807372808456,0.015004980377852917,0.1450919210910797,0.03194520249962807,0.022743171080946922,-9.403319358825684,0.0008823303505778313,-0.00026197958504781127,0.00017918366938829422,0,0,21.826047897338867,100.33500671386719,VNBIN,2915,0,1777874400316735730
1777874400422515637,/dev/ttyUSB_VN300,9821.050006000001,0,36992,0,0,false,false,false,-167.19729614257812,0.2147190272808075,-0.16269855201244354,0.0,0.0,0.0,0.0,0.0,0.0,0.0,0.0,0.0,-0.06847817450761795,0.013953429646790028,0.14405310153961182,0.018413715064525604,0.014234956353902817,-9.387002944946289,0.00016426993533968925,-0.00004206295125186443,0.0001569800078868866,0,0,21.82571792602539,100.34300231933594,VNBIN,2917,0,1777874400417448808
1777874400523226604,/dev/ttyUSB_VN300,9821.150006,0,39040,0,0,false,false,false,-167.19284057617188,0.2164798527956009,-0.16430874168872833,0.0,0.0,0.0,0.0,0.0,0.0,0.0,0.0,0.0,-0.0705396831035614,0.013962855562567711,0.1402801275253296,0.05970333144068718,0.015057219192385674,-9.381523132324219,-0.0008519832044839859,-0.00010308495257049799,0.00025027524679899216,0,0,21.826053619384766,100.34700775146484,VNBIN,2919,0,1777874400517160754
1777874400622998013,/dev/ttyUSB_VN300,9821.250006,0,32896,0,0,false,false,false,-167.19525146484375,0.21613909304141998,-0.1660437434911728,0.0,0.0,0.0,0.0,0.0,0.0,0.0,0.0,0.0,-0.07152535021305084,0.015013329684734344,0.1439398229122162,0.026678822934627533,0.024599533528089523,-9.409050941467285,0.00047361571341753006,-0.0006861903821118176,0.00038931937888264656,0,0,21.82535743713379,100.35900115966797,VNBIN,2921,0,1777874400616864125
1777874400722687162,/dev/ttyUSB_VN300,9821.350006,0,32896,0,0,false,false,false,-167.1924591064453,0.21501238644123077,-0.16707126796245575,0.0,0.0,0.0,0.0,0.0,0.0,0.0,0.0,0.0,-0.07353441417217255,0.016065780073404312,0.14632867276668549,0.03758946806192398,0.028595739975571632,-9.408918380737305,-0.00010701362043619156,-0.00011462369002401829,-0.00015906943008303642,0,0,21.825891494750977,100.35900115966797,VNBIN,2923,0,1777874400716619089
1777874400823341962,/dev/ttyUSB_VN300,9821.450006000001,0,36992,0,0,false,false,false,-167.1920928955078,0.21505847573280334,-0.16854293644428253,0.0,0.0,0.0,0.0,0.0,0.0,0.0,0.0,0.0,-0.0684719830751419,0.012891972437500954,0.14281663298606873,0.038684993982315063,0.01804007962346077,-9.393163681030273,0.0009815306402742863,-0.00003514799755066633,-0.0003129122778773308,0,0,21.826435089111328,100.35900115966797,VNBIN,2925,0,1777874400817273019
1777874400923088685,/dev/ttyUSB_VN300,9821.550006000001,0,41088,0,0,false,false,false,-167.1911163330078,0.21525846421718597,-0.16971218585968018,0.0,0.0,0.0,0.0,0.0,0.0,0.0,0.0,0.0,-0.07250671833753586,0.012884817086160183,0.142658069729805,0.03404880315065384,0.016344359144568443,-9.379398345947266,-0.00019438564777374268,0.0009501854656264186,0.0005846386775374413,0,0,21.82637596130371,100.35900115966797,VNBIN,2927,0,1777874400917001020
1777874401022767223,/dev/ttyUSB_VN300,9821.650006,0,63616,0,0,false,false,false,-167.19140625,0.2139255851507187,-0.170368492603302,0.0,0.0,0.0,0.0,0.0,0.0,0.0,0.0,0.0,-0.07252134382724762,0.012889242731034756,0.141426682472229,0.036677874624729156,0.020606590434908867,-9.393184661865234,-0.00023535499349236488,-0.00036649464163929224,-0.0003723972477018833,0,0,21.826475143432617,100.35900115966797,VNBIN,2929,0,1777874401016694965
1777874401122459909,/dev/ttyUSB_VN300,9821.750006,0,61568,0,0,false,false,false,-167.19358825683594,0.21525245904922485,-0.16907177865505219,0.0,0.0,0.0,0.0,0.0,0.0,0.0,0.0,0.0,-0.0695229321718216,0.015020731836557388,0.14278832077980042,0.0290817953646183,0.020202266052365303,-9.405378341674805,0.0006744470447301865,0.0009334647329524159,-0.00032353587448596954,0,0,21.82676124572754,100.35900115966797,VNBIN,2931,0,1777874401117393747
1777874401223168802,/dev/ttyUSB_VN300,9821.850006,0,22656,0,0,false,false,false,-167.19622802734375,0.21526691317558289,-0.1709369719028473,0.0,0.0,0.0,0.0,0.0,0.0,0.0,0.0,0.0,-0.06849933415651321,0.015018708072602749,0.14405882358551025,0.023664407432079315,0.016594767570495605,-9.404441833496094,0.000023253727704286575,0.00023244187468662858,-0.0002938332036137581,0,0,21.82571029663086,100.34700775146484,VNBIN,2933,0,1777874401217100674
1777874401322891229,/dev/ttyUSB_VN300,9821.950006000001,0,28800,0,0,false,false,false,-167.20053100585938,0.21539045870304108,-0.16972342133522034,0.0,0.0,0.0,0.0,0.0,0.0,0.0,0.0,0.0,-0.07351706176996231,0.010766126215457916,0.13891303539276123,0.03167085722088814,0.019127510488033295,-9.390881538391113,0.0005684406496584415,-0.00010426167864352465,0.0002458440139889717,0,0,21.825725555419922,100.34700775146484,VNBIN,2935,0,1777874401316823897
1777874401422593841,/dev/ttyUSB_VN300,9822.050006000001,0,30848,0,0,false,false,false,-167.20022583007812,0.21759119629859924,-0.168732151389122,0.0,0.0,0.0,0.0,0.0,0.0,0.0,0.0,0.0,-0.07250659167766571,0.012885131873190403,0.14265786111354828,0.05490098148584366,0.02137088216841221,-9.388965606689453,0.00013071205466985703,-0.00006291689351201057,-0.0008797468617558479,0,0,21.826175689697266,100.34700775146484,VNBIN,2937,0,1777874401416524935
1777874401523292697,/dev/ttyUSB_VN300,9822.150006,0,12416,0,0,false,false,false,-167.20126342773438,0.21527139842510223,-0.16768793761730194,0.0,0.0,0.0,0.0,0.0,0.0,0.0,0.0,0.0,-0.07144102454185486,0.010751605965197086,0.14391756057739258,0.02761351503431797,0.044485464692115784,-9.383713722229004,0.0001614508219063282,-0.0002592615783214569,0.0014114943332970142,0,0,21.826923370361328,100.35900115966797,VNBIN,2939,0,1777874401517228421
1777874401623019235,/dev/ttyUSB_VN300,9822.250006,0,22656,0,0,false,false,false,-167.20162963867188,0.21890363097190857,-0.1686105877161026,0.0,0.0,0.0,0.0,0.0,0.0,0.0,0.0,0.0,-0.0715191662311554,0.013951880857348442,0.1427033692598343,0.03228002041578293,0.03680034354329109,-9.402395248413086,0.000677991658449173,-0.0003454734105616808,-0.0006271428428590298,0,0,21.82680892944336,100.35900115966797,VNBIN,2941,0,1777874401616953459
1777874401722716384,/dev/ttyUSB_VN300,9822.350006,0,28800,0,0,false,false,false,-167.2050323486328,0.22013087570667267,-0.16986937820911407,0.0,0.0,0.0,0.0,0.0,0.0,0.0,0.0,0.0,-0.07046808302402496,0.01182282343506813,0.1427316814661026,0.025853797793388367,0.027626091614365578,-9.387775421142578,-0.00015740608796477318,-0.0004597643855959177,-0.00048649078235030174,0,0,21.827312469482422,100.34700775146484,VNBIN,2943,0,1777874401716647664
1777874401822422311,/dev/ttyUSB_VN300,9822.450006000001,0,30848,0,0,false,false,false,-167.20730590820312,0.2222217470407486,-0.16992440819740295,0.0,0.0,0.0,0.0,0.0,0.0,0.0,0.0,0.0,-0.07253403216600418,0.015010248869657516,0.14390040934085846,0.03967411071062088,0.030611112713813782,-9.387804985046387,-0.000039750244468450546,0.000099265540484339,-0.0005859336815774441,0,0,21.82720947265625,100.37100219726562,VNBIN,2945,0,1777874401817349408
1777874401923174130,/dev/ttyUSB_VN300,9822.550006000001,0,12416,0,0,false,false,false,-167.20887756347656,0.22351473569869995,-0.16948570311069489,0.0,0.0,0.0,0.0,0.0,0.0,0.0,0.0,0.0,-0.07152549177408218,0.015012682415544987,0.14394009113311768,0.04062759131193161,0.012098876759409904,-9.37009048461914,-0.0007263021543622017,0.00009214447345584631,-0.0001287246122956276,0,0,21.826427459716797,100.3550033569336,VNBIN,2947,0,1777874401917095039
1777874402022851427,/dev/ttyUSB_VN300,9822.650006,0,61568,0,0,false,false,false,-167.20814514160156,0.22424377501010895,-0.1675175130367279,0.0,0.0,0.0,0.0,0.0,0.0,0.0,0.0,0.0,-0.07351524382829666,0.012883336283266544,0.14261814951896667,0.0446774885058403,0.015443705022335052,-9.378531455993652,-0.000053544528782367706,0.00007794349221512675,-0.0002434183843433857,0,0,21.826160430908203,100.34700775146484,VNBIN,2949,0,1777874402016783522
1777874402122559021,/dev/ttyUSB_VN300,9822.750006,0,59520,0,0,false,false,false,-167.20611572265625,0.2215457260608673,-0.16861024498939514,0.0,0.0,0.0,0.0,0.0,0.0,0.0,0.0,0.0,-0.07052496820688248,0.013958747498691082,0.14151133596897125,0.02997506782412529,0.041666995733976364,-9.406473159790039,-0.00034950021654367447,5.9104058891534805e-6,0.0005879648961126804,0,0,21.825664520263672,100.35900115966797,VNBIN,2951,0,1777874402116492708
1777874402223317821,/dev/ttyUSB_VN300,9822.850005,0,36992,0,0,false,false,false,-167.20654296875,0.22120706737041473,-0.16787777841091156,0.0,0.0,0.0,0.0,0.0,0.0,0.0,0.0,0.0,-0.06951645761728287,0.013960842974483967,0.14155109226703644,0.03790988400578499,0.030115284025669098,-9.387763023376465,0.000028117559850215912,-0.00045705673983320594,0.0001734243705868721,0,0,21.824996948242188,100.35900115966797,VNBIN,2953,0,1777874402217185249
1777874402322969507,/dev/ttyUSB_VN300,9822.950006000001,0,51328,0,0,false,false,false,-167.20989990234375,0.22050566971302032,-0.16810770332813263,0.0,0.0,0.0,0.0,0.0,0.0,0.0,0.0,0.0,-0.06749077886343002,0.015020785853266716,0.1440984308719635,0.04454341158270836,0.02038567140698433,-9.407541275024414,0.00029156124219298363,-0.0006386400200426579,-0.0008029481396079063,0,0,21.82512664794922,100.34700775146484,VNBIN,2955,0,1777874402316901305
1777874402422686860,/dev/ttyUSB_VN300,9823.050006000001,0,55424,0,0,false,false,false,-167.21278381347656,0.22050070762634277,-0.16664807498455048,0.0,0.0,0.0,0.0,0.0,0.0,0.0,0.0,0.0,-0.07555997371673584,0.015006494708359241,0.14378149807453156,0.04403337091207504,0.031160902231931686,-9.394304275512695,0.0002478365786373615,0.0001228551845997572,-0.00022571301087737083,0,0,21.825864791870117,100.37100219726562,VNBIN,2957,0,1777874402416616269
1777874402522798733,/dev/ttyUSB_VN300,9823.150006,0,59520,0,0,false,false,false,-167.21299743652344,0.21579596400260925,-0.16742859780788422,0.0,0.0,0.0,0.0,0.0,0.0,0.0,0.0,0.0,-0.07252762466669083,0.013949771411716938,0.14266349375247955,0.026957910507917404,0.0354485809803009,-9.395110130310059,0.000481494702398777,-0.0003783827996812761,-0.000047229230403900146,0,0,21.827152252197266,100.35900115966797,VNBIN,2959,0,1777874402517339125
1777874402623174829,/dev/ttyUSB_VN300,9823.250006,0,39040,0,0,false,false,false,-167.21240234375,0.21835507452487946,-0.16669198870658875,0.0,0.0,0.0,0.0,0.0,0.0,0.0,0.0,0.0,-0.07151917368173599,0.013951540924608707,0.14270298182964325,0.03419731929898262,0.02335631474852562,-9.393375396728516,-0.0005192435346543789,0.0001896603498607874,-0.00014446955174207687,0,0,21.8262882232666,100.35900115966797,VNBIN,2961,0,1777874402617107441
1777874402722853385,/dev/ttyUSB_VN300,9823.350006,0,10368,0,0,false,false,false,-167.21351623535156,0.2192084640264511,-0.1660226285457611,0.0,0.0,0.0,0.0,0.0,0.0,0.0,0.0,0.0,-0.07347949594259262,0.01181329321116209,0.1438439041376114,0.030995888635516167,0.027668718248605728,-9.396551132202148,0.0001517697237432003,0.0007202991982921958,0.0005477950908243656,0,0,21.82648468017578,100.35900115966797,VNBIN,2963,0,1777874402716785905
1777874402822511979,/dev/ttyUSB_VN300,9823.450006000001,0,30848,0,0,false,false,false,-167.2129669189453,0.2163468450307846,-0.16850891709327698,0.0,0.0,0.0,0.0,0.0,0.0,0.0,0.0,0.0,-0.06948719173669815,0.013950688764452934,0.1440136879682541,0.014455133117735386,0.028789237141609192,-9.396060943603516,0.00043821893632411957,0.0001935563632287085,0.00011129351332783699,0,0,21.826335906982422,100.35900115966797,VNBIN,2965,0,1777874402817443335
1777874402923221482,/dev/ttyUSB_VN300,9823.550006000001,0,12416,0,0,false,false,false,-167.20986938476562,0.2161198854446411,-0.1682986468076706,0.0,0.0,0.0,0.0,0.0,0.0,0.0,0.0,0.0,-0.07149789482355118,0.01288691908121109,0.14269748330116272,0.023425228893756866,0.026305757462978363,-9.40451717376709,-0.000017362646758556366,0.0001766374334692955,-0.0001512821763753891,0,0,21.826133728027344,100.35900115966797,VNBIN,2967,0,1777874402917154854
1777874403022513056,/dev/ttyUSB_VN300,9823.650006,0,6272,0,0,false,false,false,-167.20733642578125,0.21617141366004944,-0.1674569845199585,0.0,0.0,0.0,0.0,0.0,0.0,0.0,0.0,0.0,-0.06846379488706589,0.013948032632470131,0.14528456330299377,0.027697501704096794,0.02150542289018631,-9.377792358398438,0.0002787252888083458,0.0005266849184408784,0.000668832566589117,0,0,21.826990127563477,100.34700775146484,VNBIN,2969,0,1777874403016894318
1777874403122666374,/dev/ttyUSB_VN300,9823.750006,0,10368,0,0,false,false,false,-167.20443725585938,0.2145961970090866,-0.16361631453037262,0.0,0.0,0.0,0.0,0.0,0.0,0.0,0.0,0.0,-0.07251934707164764,0.015006151981651783,0.1451316922903061,0.03489481285214424,0.0312982052564621,-9.39380931854248,0.0011671571992337704,-0.0002858355874195695,0.000542184803634882,0,0,21.827190399169922,100.35900115966797,VNBIN,2971,0,1777874403116597264
1777874403223360248,/dev/ttyUSB_VN300,9823.850006,0,30848,0,0,false,false,false,-167.20457458496094,0.21757426857948303,-0.16434715688228607,0.0,0.0,0.0,0.0,0.0,0.0,0.0,0.0,0.0,-0.07244797796010971,0.012867052108049393,0.1475832462310791,0.04101128131151199,0.019726192578673363,-9.380977630615234,0.000029948540031909943,0.00025279464898630977,0.00042618950828909874,0,0,21.826704025268555,100.34300231933594,VNBIN,2973,0,1777874403217289360
1777874403323064341,/dev/ttyUSB_VN300,9823.950006000001,0,55424,0,0,false,false,false,-167.20191955566406,0.21719145774841309,-0.1644791066646576,0.0,0.0,0.0,0.0,0.0,0.0,0.0,0.0,0.0,-0.07051676511764526,0.015014800243079662,0.14397965371608734,0.01876542530953884,0.020838608965277672,-9.395684242248535,0.0005551250651478767,0.00012046645861119032,0.0002428474836051464,0,0,21.826265335083008,100.35900115966797,VNBIN,2975,0,1777874403316995084
1777874403422777250,/dev/ttyUSB_VN300,9824.050006000001,0,59520,0,0,false,false,false,-167.20379638671875,0.21799658238887787,-0.16680899262428284,0.0,0.0,0.0,0.0,0.0,0.0,0.0,0.0,0.0,-0.06849309056997299,0.013957240618765354,0.1428222507238388,0.025206048041582108,0.01864342764019966,-9.404433250427246,0.00010932376608252525,-0.00003534054849296808,-0.00018148310482501984,0,0,21.82680892944336,100.35900115966797,VNBIN,2977,0,1777874403416707511
1777874403522714400,/dev/ttyUSB_VN300,9824.150006,0,39040,0,0,false,false,false,-167.20213317871094,0.21860109269618988,-0.16411787271499634,0.0,0.0,0.0,0.0,0.0,0.0,0.0,0.0,0.0,-0.07350056618452072,0.012877936474978924,0.14384965598583221,0.022851668298244476,0.027482567355036736,-9.397862434387207,0.00008115824311971664,0.0004449771950021386,-0.0006143888458609581,0,0,21.827375411987305,100.35900115966797,VNBIN,2979,0,1777874403517413459
1777874403623191125,/dev/ttyUSB_VN300,9824.250006,0,59520,0,0,false,false,false,-167.20565795898438,0.2185334861278534,-0.16331571340560913,0.0,0.0,0.0,0.0,0.0,0.0,0.0,0.0,0.0,-0.07351522892713547,0.01288333348929882,0.14261814951896667,0.029184894636273384,0.018704058602452278,-9.403160095214844,-0.0004843776114284992,-0.00023409107234328985,0.00043400097638368607,0,0,21.82593536376953,100.35900115966797,VNBIN,2981,0,1777874403617113997
1777874403722902960,/dev/ttyUSB_VN300,9824.350006,0,36992,0,0,false,false,false,-167.21151733398438,0.21754533052444458,-0.16594813764095306,0.0,0.0,0.0,0.0,0.0,0.0,0.0,0.0,0.0,-0.07151888310909271,0.013952846638858318,0.14270326495170593,0.02614765614271164,0.02816062793135643,-9.385056495666504,-0.00011711008846759796,-0.00015493016690015793,0.000281402375549078,0,0,21.825664520263672,100.35900115966797,VNBIN,2983,0,1777874403716833239
1777874403822659516,/dev/ttyUSB_VN300,9824.450006000001,0,39040,0,0,false,false,false,-167.21205139160156,0.21542580425739288,-0.16704413294792175,0.0,0.0,0.0,0.0,0.0,0.0,0.0,0.0,0.0,-0.07251329720020294,0.013945328071713448,0.14389483630657196,0.03012881800532341,0.04394925758242607,-9.399567604064941,0.00044993916526436806,-0.00040639337385073304,0.0006178040057420731,0,0,21.8273868560791,100.3550033569336,VNBIN,2985,0,1777874403816531684
1777874403923318798,/dev/ttyUSB_VN300,9824.550006000001,0,36992,0,0,false,false,false,-167.21510314941406,0.21689431369304657,-0.16729608178138733,0.0,0.0,0.0,0.0,0.0,0.0,0.0,0.0,0.0,-0.07552627474069595,0.011817987076938152,0.14130230247974396,0.03562619537115097,0.020861538127064705,-9.397531509399414,-0.0003910725936293602,-0.00014288758393377066,0.00009735627099871635,0,0,21.827932357788086,100.35900115966797,VNBIN,2987,0,1777874403917252114
1777874404023277114,/dev/ttyUSB_VN300,9824.650006,0,59520,0,0,false,false,false,-167.20986938476562,0.21578310430049896,-0.1672452688217163,0.0,0.0,0.0,0.0,0.0,0.0,0.0,0.0,0.0,-0.07247712463140488,0.012875611893832684,0.14512044191360474,0.026568491011857986,0.019524062052369118,-9.402405738830566,-0.000746679026633501,0.000291826028842479,-0.0006812158972024918,0,0,21.827163696289062,100.35900115966797,VNBIN,2989,0,1777874404016947726
1777874404122737522,/dev/ttyUSB_VN300,9824.750006,0,36992,0,0,false,false,false,-167.2109832763672,0.21504777669906616,-0.16613386571407318,0.0,0.0,0.0,0.0,0.0,0.0,0.0,0.0,0.0,-0.06744866818189621,0.012889334000647068,0.14408765733242035,0.03816653788089752,0.03226388618350029,-9.386285781860352,0.0006032236851751804,-0.0006550330435857177,-0.0004732930101454258,0,0,21.826751708984375,100.35900115966797,VNBIN,2991,0,1777874404116668468
1777874404222454468,/dev/ttyUSB_VN300,9824.850006,0,39040,0,0,false,false,false,-167.2097930908203,0.21405670046806335,-0.1644701361656189,0.0,0.0,0.0,0.0,0.0,0.0,0.0,0.0,0.0,-0.07455132156610489,0.015006995759904385,0.14382097125053406,0.021603133529424667,0.03305939584970474,-9.43963623046875,0.00040195928886532784,-0.0001120672095566988,0.0001286291517317295,0,0,21.827171325683594,100.3550033569336,VNBIN,2993,0,1777874404217392102
1777874404323190898,/dev/ttyUSB_VN300,9824.950006000001,0,16512,0,0,false,false,false,-167.21041870117188,0.21643730998039246,-0.16504940390586853,0.0,0.0,0.0,0.0,0.0,0.0,0.0,0.0,0.0,-0.07249178737401962,0.012880047783255577,0.14388911426067352,0.056480493396520615,0.01717172935605049,-9.41504955291748,0.00008913036435842514,0.0006461497396230698,0.0002092304639518261,0,0,21.82744789123535,100.35900115966797,VNBIN,2995,0,1777874404317124399
1777874404422857158,/dev/ttyUSB_VN300,9825.050006000001,0,24704,0,0,false,false,false,-167.21202087402344,0.2166762799024582,-0.16600999236106873,0.0,0.0,0.0,0.0,0.0,0.0,0.0,0.0,0.0,-0.06750533729791641,0.015023994259536266,0.14286738634109497,0.025038668885827065,0.03481399267911911,-9.39492130279541,-0.0006794305518269539,7.873226422816515e-6,0.0005150241777300835,0,0,21.827171325683594,100.35900115966797,VNBIN,2997,0,1777874404416790104
1777874404522576566,/dev/ttyUSB_VN300,9825.150006,0,8320,0,0,false,false,false,-167.21435546875,0.21761341392993927,-0.1672506332397461,0.0,0.0,0.0,0.0,0.0,0.0,0.0,0.0,0.0,-0.06947889178991318,0.01500740833580494,0.1464822143316269,0.03991517797112465,0.038962122052907944,-9.400725364685059,-0.00007639499381184578,-0.00030417978996410966,0.00038492726162075996,0,0,21.826637268066406,100.35900115966797,VNBIN,2999,0,1777874404517508478
1777874404623291329,/dev/ttyUSB_VN300,9825.250006,0,8320,0,0,false,false,false,-167.2162322998047,0.21631747484207153,-0.16948166489601135,0.0,0.0,0.0,0.0,0.0,0.0,0.0,0.0,0.0,-0.07654120773077011,0.012877952307462692,0.14249910414218903,0.036086227744817734,0.038643162697553635,-9.385575294494629,-0.0003254939801990986,-0.0002986933686770499,0.0010954677127301693,0,0,21.826126098632812,100.35900115966797,VNBIN,3001,0,1777874404617223386
1777874404722964682,/dev/ttyUSB_VN300,9825.350006,0,16512,0,0,false,false,false,-167.21714782714844,0.21404975652694702,-0.1688563972711563,0.0,0.0,0.0,0.0,0.0,0.0,0.0,0.0,0.0,-0.0725487470626831,0.015014699660241604,0.1426691859960556,0.028340265154838562,0.0028585363179445267,-9.387849807739258,0.0001368359662592411,-0.00023044482804834843,-0.00022601615637540817,0,0,21.82756805419922,100.35900115966797,VNBIN,3003,0,1777874404716902721
1777874404822711869,/dev/ttyUSB_VN300,9825.450006000001,0,30848,0,0,false,false,false,-167.2185821533203,0.21438559889793396,-0.1704728901386261,0.0,0.0,0.0,0.0,0.0,0.0,0.0,0.0,0.0,-0.06847844272851944,0.013951861299574375,0.14405344426631927,0.04186953231692314,0.018313419073820114,-9.399410247802734,0.00032437173649668694,0.0002689206739887595,-0.0003393380902707577,0,0,21.828317642211914,100.37100219726562,VNBIN,3005,0,1777874404816643148
1777874404923396280,/dev/ttyUSB_VN300,9825.550006000001,0,4224,0,0,false,false,false,-167.2166290283203,0.2135312557220459,-0.17266380786895752,0.0,0.0,0.0,0.0,0.0,0.0,0.0,0.0,0.0,-0.0725572481751442,0.013957679271697998,0.14020097255706787,0.03671019524335861,0.02991824597120285,-9.403790473937988,0.00027311500161886215,-0.00016688083996996284,0.00011617597192525864,0,0,21.828317642211914,100.35900115966797,VNBIN,3007,0,1777874404917328596
1777874405023121151,/dev/ttyUSB_VN300,9825.650006,0,6272,0,0,false,false,false,-167.22132873535156,0.21590806543827057,-0.1751490831375122,0.0,0.0,0.0,0.0,0.0,0.0,0.0,0.0,0.0,-0.07052342593669891,0.01607440412044525,0.14521680772304535,0.04889432340860367,0.029501425102353096,-9.381633758544922,0.0004420238547027111,0.0006581875495612621,0.0007626675069332123,0,0,21.828283309936523,100.35900115966797,VNBIN,3009,0,1777874405017045579
1777874405122845801,/dev/ttyUSB_VN300,9825.750006,0,20608,0,0,false,false,false,-167.22227478027344,0.21503525972366333,-0.17624180018901825,0.0,0.0,0.0,0.0,0.0,0.0,0.0,0.0,0.0,-0.07052501291036606,0.01395651325583458,0.14151185750961304,0.044356320053339005,0.026491962373256683,-9.394969940185547,0.0007468946278095245,-0.00040409929351881146,2.52528116106987e-6,0,0,21.829179763793945,100.35900115966797,VNBIN,3011,0,1777874405116779154
1777874405222522079,/dev/ttyUSB_VN300,9825.850006,0,39040,0,0,false,false,false,-167.2239532470703,0.21758754551410675,-0.17509855329990387,0.0,0.0,0.0,0.0,0.0,0.0,0.0,0.0,0.0,-0.06744853407144547,0.012886442244052887,0.14408773183822632,0.04079439491033554,0.009492097422480583,-9.401432991027832,-0.0002639959566295147,-9.942450560629368e-7,0.0001228577457368374,0,0,21.830957412719727,100.35900115966797,VNBIN,3013,0,1777874405217455287
1777874405323220953,/dev/ttyUSB_VN300,9825.950006000001,0,45184,0,0,false,false,false,-167.22056579589844,0.2169770747423172,-0.17537857592105865,0.0,0.0,0.0,0.0,0.0,0.0,0.0,0.0,0.0,-0.07259109616279602,0.01714339107275009,0.14268063008785248,0.042402394115924835,0.027719339355826378,-9.395066261291504,-0.0005247527733445168,-0.000016659265384078026,-0.0001990566961467266,0,0,21.830854415893555,100.35900115966797,VNBIN,3015,0,1777874405317153881
1777874405423016566,/dev/ttyUSB_VN300,9826.050006000001,0,34944,0,0,false,false,false,-167.22203063964844,0.21462731063365936,-0.17622919380664825,0.0,0.0,0.0,0.0,0.0,0.0,0.0,0.0,0.0,-0.07355131208896637,0.013949552550911903,0.14139311015605927,0.02886161580681801,0.014627058990299702,-9.38144588470459,-0.0001386343501508236,-0.0003011234803125262,-0.00003541167825460434,0,0,21.83161163330078,100.34700775146484,VNBIN,3017,0,1777874405416884049
1777874405522666696,/dev/ttyUSB_VN300,9826.150006,0,32896,0,0,false,false,false,-167.2177734375,0.21079310774803162,-0.17497487366199493,0.0,0.0,0.0,0.0,0.0,0.0,0.0,0.0,0.0,-0.0684867799282074,0.01289288979023695,0.1415858417749405,0.014428401365876198,0.028959739953279495,-9.382614135742188,0.00021928874775767326,-0.0004429457476362586,0.00028914306312799454,0,0,21.832107543945312,100.35900115966797,VNBIN,3019,0,1777874405516599013
1777874405623351497,/dev/ttyUSB_VN300,9826.250006,0,39040,0,0,false,false,false,-167.21755981445312,0.2132670134305954,-0.1730928122997284,0.0,0.0,0.0,0.0,0.0,0.0,0.0,0.0,0.0,-0.0674552172422409,0.013946660794317722,0.14532476663589478,0.03448501229286194,0.019814420491456985,-9.39188289642334,0.0005206451751291752,-0.0007833545096218586,-0.00040201377123594284,0,0,21.831295013427734,100.35900115966797,VNBIN,3021,0,1777874405617283924
1777874405723088664,/dev/ttyUSB_VN300,9826.350006,0,45184,0,0,false,false,false,-167.21124267578125,0.2156994789838791,-0.17203013598918915,0.0,0.0,0.0,0.0,0.0,0.0,0.0,0.0,0.0,-0.07353641837835312,0.0139457480981946,0.14262442290782928,0.0181882381439209,0.017474465072155,-9.389416694641113,0.00018892670050263405,0.0009302576072514057,0.00006964057683944702,0,0,21.830530166625977,100.34700775146484,VNBIN,3023,0,1777874405717021481
1777874405822773665,/dev/ttyUSB_VN300,9826.450006000001,0,34944,0,0,false,false,false,-167.20883178710938,0.21611665189266205,-0.17328718304634094,0.0,0.0,0.0,0.0,0.0,0.0,0.0,0.0,0.0,-0.07257021218538284,0.016078082844614983,0.1426752358675003,0.045098476111888885,0.033089250326156616,-9.393660545349121,0.0006713131442666054,0.00017775536980479956,-0.00018750689923763275,0,0,21.830121994018555,100.35900115966797,VNBIN,3025,0,1777874405816706297
1777874405922485722,/dev/ttyUSB_VN300,9826.550006000001,0,32896,0,0,false,false,false,-167.20692443847656,0.21811449527740479,-0.17472663521766663,0.0,0.0,0.0,0.0,0.0,0.0,0.0,0.0,0.0,-0.06950163096189499,0.013953857123851776,0.1427827924489975,0.041178710758686066,0.030034009367227554,-9.40166187286377,-0.0001758183352649212,0.00015346333384513855,0.00017432589083909988,0,0,21.82891845703125,100.34300231933594,VNBIN,3027,0,1777874405917417486
1777874406023225300,/dev/ttyUSB_VN300,9826.650006,0,20608,0,0,false,false,false,-167.20912170410156,0.2176777720451355,-0.1736816018819809,0.0,0.0,0.0,0.0,0.0,0.0,0.0,0.0,0.0,-0.07146226614713669,0.011814972385764122,0.14392344653606415,0.039936941117048264,0.012609714642167091,-9.38249397277832,-0.0005406183190643787,-0.0005580800352618098,0.0009305872954428196,0,0,21.829702377319336,100.35900115966797,VNBIN,3029,0,1777874406017156561
1777874406122905264,/dev/ttyUSB_VN300,9826.750006,0,128,0,0,false,false,false,-167.20875549316406,0.21689258515834808,-0.17383930087089539,0.0,0.0,0.0,0.0,0.0,0.0,0.0,0.0,0.0,-0.07152735441923141,0.012893560342490673,0.14023543894290924,0.028085283935070038,0.03956940397620201,-9.397902488708496,0.000045942142605781555,-0.00005200086161494255,0.00009845010936260223,0,0,21.82944107055664,100.35900115966797,VNBIN,3031,0,1777874406116837451
1777874406222626747,/dev/ttyUSB_VN300,9826.850006,0,128,0,0,false,false,false,-167.20449829101562,0.21708449721336365,-0.17369751632213593,0.0,0.0,0.0,0.0,0.0,0.0,0.0,0.0,0.0,-0.0705525279045105,0.01608261466026306,0.14275436103343964,0.03837575018405914,0.05035749450325966,-9.397212028503418,0.00024378718808293343,0.00032508798176422715,0.0003129029646515846,0,0,21.829021453857422,100.35900115966797,VNBIN,3033,0,1777874406216561433
1777874406323332436,/dev/ttyUSB_VN300,9826.950006000001,0,6272,0,0,false,false,false,-167.20416259765625,0.21788959205150604,-0.17232364416122437,0.0,0.0,0.0,0.0,0.0,0.0,0.0,0.0,0.0,-0.06748256832361221,0.01607401855289936,0.14656707644462585,0.033690162003040314,0.03296352177858353,-9.399539947509766,0.0004433351568877697,-0.000779726542532444,-0.00020429771393537521,0,0,21.829736709594727,100.35900115966797,VNBIN,3035,0,1777874406317264919
1777874406423036492,/dev/ttyUSB_VN300,9827.050006000001,0,14464,0,0,false,false,false,-167.20558166503906,0.2179260104894638,-0.17396540939807892,0.0,0.0,0.0,0.0,0.0,0.0,0.0,0.0,0.0,-0.07458730787038803,0.01607546955347061,0.1425958275794983,0.04042308032512665,0.04039641469717026,-9.411298751831055,0.0006618928164243698,0.00020048348233103752,0.00034651579335331917,0,0,21.82912254333496,100.35900115966797,VNBIN,3037,0,1777874406416967623
1777874406522760956,/dev/ttyUSB_VN300,9827.150006,0,128,0,0,false,false,false,-167.2067413330078,0.21692408621311188,-0.17534393072128296,0.0,0.0,0.0,0.0,0.0,0.0,0.0,0.0,0.0,-0.07553271949291229,0.012878475710749626,0.14253926277160645,0.03127918019890785,0.032872553914785385,-9.403125762939453,-0.00009893439710140228,0.000529955024830997,-0.00048403674736618996,0,0,21.827486038208008,100.34700775146484,VNBIN,3039,0,1777874406516686680
1777874406622493217,/dev/ttyUSB_VN300,9827.250006,0,128,0,0,false,false,false,-167.20901489257812,0.21769648790359497,-0.1765165776014328,0.0,0.0,0.0,0.0,0.0,0.0,0.0,0.0,0.0,-0.06950797885656357,0.015015961602330208,0.14401932060718536,0.05499155446887016,0.027848774567246437,-9.38589859008789,-0.000712705310434103,0.0002164440811611712,0.00004348205402493477,0,0,21.827594757080078,100.35900115966797,VNBIN,3041,0,1777874406617418165
1777874406723258758,/dev/ttyUSB_VN300,9827.350006,0,6272,0,0,false,false,false,-167.2039031982422,0.2181216925382614,-0.17690697312355042,0.0,0.0,0.0,0.0,0.0,0.0,0.0,0.0,0.0,-0.06542470306158066,0.011831438168883324,0.14292998611927032,0.029522839933633804,0.05019795522093773,-9.40467643737793,0.0006799781695008278,-0.0004986708518117666,0.00033076340332627296,0,0,21.827716827392578,100.35900115966797,VNBIN,3043,0,1777874406717197259
1777874406822881388,/dev/ttyUSB_VN300,9827.450006000001,0,14464,0,0,false,false,false,-167.20680236816406,0.2172410637140274,-0.17712648212909698,0.0,0.0,0.0,0.0,0.0,0.0,0.0,0.0,0.0,-0.0725066065788269,0.012883217073976994,0.1426582932472229,0.03385834023356438,0.027846653014421463,-9.409786224365234,-0.0005551837384700775,0.0001960994559340179,-0.0015166937373578548,0,0,21.829120635986328,100.34700775146484,VNBIN,3045,0,1777874406816811797
1777874406922617463,/dev/ttyUSB_VN300,9827.550006000001,0,128,0,0,false,false,false,-167.20750427246094,0.21783703565597534,-0.17542819678783417,0.0,0.0,0.0,0.0,0.0,0.0,0.0,0.0,0.0,-0.07257819175720215,0.015022656880319118,0.14020691812038422,0.0421714261174202,0.027453508228063583,-9.420677185058594,-0.0002776957117021084,0.00018140504835173488,0.0013544955290853977,0,0,21.829151153564453,100.35900115966797,VNBIN,3047,0,1777874406916551002
1777874407023340708,/dev/ttyUSB_VN300,9827.650006,0,32896,0,0,false,false,false,-167.20770263671875,0.2181173861026764,-0.17424914240837097,0.0,0.0,0.0,0.0,0.0,0.0,0.0,0.0,0.0,-0.07051689922809601,0.015012596733868122,0.14397995173931122,0.020744778215885162,0.035455815494060516,-9.408395767211914,-0.0004024370573461056,0.00027399760438129306,0.000693541020154953,0,0,21.829662322998047,100.34700775146484,VNBIN,3049,0,1777874407017221339
1777874407123005246,/dev/ttyUSB_VN300,9827.750006,0,43136,0,0,false,false,false,-167.20980834960938,0.21892207860946655,-0.1739511340856552,0.0,0.0,0.0,0.0,0.0,0.0,0.0,0.0,0.0,-0.07654165476560593,0.012876395136117935,0.14249961078166962,0.05194198340177536,0.007798988837748766,-9.399086952209473,7.559545338153839e-6,-0.00012982008047401905,0.00022436631843447685,0,0,21.829055786132812,100.35900115966797,VNBIN,3051,0,1777874407116931729
1777874407222717766,/dev/ttyUSB_VN300,9827.850006,0,57472,0,0,false,false,false,-167.21243286132812,0.22265036404132843,-0.17432673275470734,0.0,0.0,0.0,0.0,0.0,0.0,0.0,0.0,0.0,-0.07146866619586945,0.012875805608928204,0.14516030251979828,0.043510664254426956,0.034975823014974594,-9.389511108398438,0.00015807757154107094,0.00005768326809629798,0.00024873577058315277,0,0,21.83008575439453,100.33500671386719,VNBIN,3053,0,1777874407216649952
1777874407323405677,/dev/ttyUSB_VN300,9827.950006000001,0,41088,0,0,false,false,false,-167.20269775390625,0.2236069142818451,-0.1740363985300064,0.0,0.0,0.0,0.0,0.0,0.0,0.0,0.0,0.0,-0.07053183019161224,0.015016415156424046,0.1427491158246994,0.061306182295084,0.022405296564102173,-9.40999984741211,-0.00011244136840105057,-0.0009291439782828093,-0.00028336746618151665,0,0,21.830249786376953,100.35900115966797,VNBIN,3055,0,1777874407317334752
1777874407423119122,/dev/ttyUSB_VN300,9828.050006000001,0,53376,0,0,false,false,false,-167.2045135498047,0.2238386571407318,-0.17399202287197113,0.0,0.0,0.0,0.0,0.0,0.0,0.0,0.0,0.0,-0.06545049697160721,0.016073154285550117,0.14787769317626953,0.03602255880832672,0.04020421579480171,-9.406280517578125,0.00006406474858522415,0.0006937016150914133,-0.0003717457875609398,0,0,21.82963752746582,100.35900115966797,VNBIN,3057,0,1777874407417057679
1777874407522832605,/dev/ttyUSB_VN300,9828.150006,0,57472,0,0,false,false,false,-167.20510864257812,0.224439337849617,-0.1725577563047409,0.0,0.0,0.0,0.0,0.0,0.0,0.0,0.0,0.0,-0.07250039279460907,0.011821393854916096,0.14142131805419922,0.045841801911592484,0.01796463131904602,-9.41469669342041,-0.00031325966119766235,0.00002065079752355814,-0.0004167151637375355,0,0,21.830215454101562,100.35900115966797,VNBIN,3059,0,1777874407516759051
1777874407622540347,/dev/ttyUSB_VN300,9828.250006,0,36992,0,0,false,false,false,-167.20437622070312,0.2229967564344406,-0.17105603218078613,0.0,0.0,0.0,0.0,0.0,0.0,0.0,0.0,0.0,-0.07354949414730072,0.0160677433013916,0.14509807527065277,0.03398163616657257,0.02350558340549469,-9.404995918273926,-0.00019432511180639267,-0.0004443270736373961,0.00014547351747751236,0,0,21.83009147644043,100.35900115966797,VNBIN,3061,0,1777874407617470092
1777874407723247443,/dev/ttyUSB_VN300,9828.350005,0,39040,0,0,false,false,false,-167.20208740234375,0.2226852923631668,-0.17259481549263,0.0,0.0,0.0,0.0,0.0,0.0,0.0,0.0,0.0,-0.07049560546875,0.01394727360457182,0.14397397637367249,0.03500644117593765,0.018137412145733833,-9.387686729431152,-0.0001302529126405716,-0.00030917307594791055,0.0006753117777407169,0,0,21.828895568847656,100.35900115966797,VNBIN,3063,0,1777874407717175482
1777874407822983111,/dev/ttyUSB_VN300,9828.450006000001,0,32896,0,0,false,false,false,-167.20237731933594,0.2222660332918167,-0.1724386364221573,0.0,0.0,0.0,0.0,0.0,0.0,0.0,0.0,0.0,-0.06645283102989197,0.015011490322649479,0.14660097658634186,0.051802217960357666,0.0354653000831604,-9.377241134643555,0.00007303524762392044,0.000311525771394372,-0.0003648628480732441,0,0,21.828750610351562,100.35900115966797,VNBIN,3065,0,1777874407816915761
1777874407922687371,/dev/ttyUSB_VN300,9828.550006000001,0,32896,0,0,false,false,false,-167.20411682128906,0.2256610095500946,-0.17158448696136475,0.0,0.0,0.0,0.0,0.0,0.0,0.0,0.0,0.0,-0.07450121641159058,0.013930941931903362,0.14627841114997864,0.04732267186045647,0.03271687775850296,-9.404035568237305,-0.0002316497266292572,0.0006267981370911002,0.00002074567601084709,0,0,21.830095291137695,100.35900115966797,VNBIN,3067,0,1777874407916605058
1777874408023374949,/dev/ttyUSB_VN300,9828.650006,0,36992,0,0,false,false,false,-167.20167541503906,0.2279486358165741,-0.1734524369239807,0.0,0.0,0.0,0.0,0.0,0.0,0.0,0.0,0.0,-0.07352178543806076,0.013940976932644844,0.14385543763637543,0.044366754591464996,0.005824248306453228,-9.370744705200195,0.00029611634090542793,0.00010788347572088242,0.0003157840110361576,0,0,21.830753326416016,100.35900115966797,VNBIN,3069,0,1777874408017302154
1777874408123081635,/dev/ttyUSB_VN300,9828.750006,0,4224,0,0,false,false,false,-167.20103454589844,0.22595620155334473,-0.17386791110038757,0.0,0.0,0.0,0.0,0.0,0.0,0.0,0.0,0.0,-0.07053998857736588,0.013959989883005619,0.14028066396713257,0.025427810847759247,0.027299176901578903,-9.384384155273438,-0.00025740358978509903,-0.00037515413714572787,-0.0004084017127752304,0,0,21.830724716186523,100.35900115966797,VNBIN,3071,0,1777874408117010026
1777874408222798859,/dev/ttyUSB_VN300,9828.850006,0,2176,0,0,false,false,false,-167.2011260986328,0.22352032363414764,-0.1749337613582611,0.0,0.0,0.0,0.0,0.0,0.0,0.0,0.0,0.0,-0.07354296743869781,0.01500628050416708,0.14386118948459625,0.03248889744281769,0.017942512407898903,-9.39204216003418,-0.0006044316105544567,-0.00022386875934898853,-0.0009239115752279758,0,0,21.8310604095459,100.35900115966797,VNBIN,3073,0,1777874408216724360
1777874408322509786,/dev/ttyUSB_VN300,9828.950006000001,0,128,0,0,false,false,false,-167.20494079589844,0.22371181845664978,-0.17330282926559448,0.0,0.0,0.0,0.0,0.0,0.0,0.0,0.0,0.0,-0.0714622512459755,0.011814010329544544,0.14392364025115967,0.03798091411590576,0.025652462616562843,-9.406771659851074,-3.6740675568580627e-6,0.00014500762335956097,-0.00038256123661994934,0,0,21.830730438232422,100.3550033569336,VNBIN,3075,0,1777874408317436290
1777874408423253345,/dev/ttyUSB_VN300,9829.050006000001,0,8320,0,0,false,false,false,-167.20338439941406,0.2266758233308792,-0.17157310247421265,0.0,0.0,0.0,0.0,0.0,0.0,0.0,0.0,0.0,-0.07058852165937424,0.01715204119682312,0.14152862131595612,0.05064293369650841,0.032093364745378494,-9.408797264099121,0.0002679736353456974,0.000052600400522351265,0.00022573582828044891,0,0,21.829978942871094,100.34700775146484,VNBIN,3077,0,1777874408417182106
1777874408522945328,/dev/ttyUSB_VN300,9829.150006,0,128,0,0,false,false,false,-167.2034912109375,0.22634731233119965,-0.1725466549396515,0.0,0.0,0.0,0.0,0.0,0.0,0.0,0.0,0.0,-0.06648197770118713,0.01501911599189043,0.14413845539093018,0.029849475249648094,0.03816268593072891,-9.37968635559082,0.0002898881211876869,0.0008744871593080461,-0.0004337197169661522,0,0,21.8306941986084,100.35900115966797,VNBIN,3079,0,1777874408516877792
1777874408622700921,/dev/ttyUSB_VN300,9829.250006,0,2176,0,0,false,false,false,-167.2019500732422,0.22411930561065674,-0.17252054810523987,0.0,0.0,0.0,0.0,0.0,0.0,0.0,0.0,0.0,-0.07351548969745636,0.012880431488156319,0.1426185518503189,0.03453972935676575,0.029137734323740005,-9.40408706665039,-0.0003571845591068268,0.0005177017883397639,0.0004307427443563938,0,0,21.8299503326416,100.37100219726562,VNBIN,3081,0,1777874408616570608
1777874408723324981,/dev/ttyUSB_VN300,9829.350006,0,128,0,0,false,false,false,-167.19920349121094,0.22345004975795746,-0.16989167034626007,0.0,0.0,0.0,0.0,0.0,0.0,0.0,0.0,0.0,-0.06947872042655945,0.015004528686404228,0.1464821994304657,0.0341990664601326,0.026649780571460724,-9.402750968933105,0.00043152226135134697,6.528978701680899e-6,-0.00037797633558511734,0,0,21.83074188232422,100.35900115966797,VNBIN,3083,0,1777874408717261649
1777874408823049148,/dev/ttyUSB_VN300,9829.450006000001,0,20608,0,0,false,false,false,-167.19883728027344,0.22294999659061432,-0.16886596381664276,0.0,0.0,0.0,0.0,0.0,0.0,0.0,0.0,0.0,-0.06949537247419357,0.012891420163214207,0.14154601097106934,0.03490641713142395,0.026585329324007034,-9.396075248718262,-0.0003436547704041004,0.00045440858229994774,0.00015397556126117706,0,0,21.831342697143555,100.35900115966797,VNBIN,3085,0,1777874408816977261
1777874408922764501,/dev/ttyUSB_VN300,9829.550006000001,0,10368,0,0,false,false,false,-167.1963348388672,0.22339436411857605,-0.1685926914215088,0.0,0.0,0.0,0.0,0.0,0.0,0.0,0.0,0.0,-0.06646116077899933,0.01395287737250328,0.14413301646709442,0.031437862664461136,0.024482255801558495,-9.39676284790039,-0.00026308605447411537,0.0007911438005976379,0.000028824899345636368,0,0,21.83185577392578,100.35900115966797,VNBIN,3087,0,1777874408916695188
1777874409022450539,/dev/ttyUSB_VN300,9829.650006,0,34944,0,0,false,false,false,-167.19464111328125,0.22299803793430328,-0.16754268109798431,0.0,0.0,0.0,0.0,0.0,0.0,0.0,0.0,0.0,-0.07152553647756577,0.015008899383246899,0.14394061267375946,0.04866770654916763,0.032545674592256546,-9.413091659545898,-0.00033491337671875954,0.00035638833651319146,0.00016806507483124733,0,0,21.832311630249023,100.36700439453125,VNBIN,3089,0,1777874409017389099
1777874409123169562,/dev/ttyUSB_VN300,9829.750006,0,32896,0,0,false,false,false,-167.197509765625,0.22333958745002747,-0.16681145131587982,0.0,0.0,0.0,0.0,0.0,0.0,0.0,0.0,0.0,-0.07056107372045517,0.015024660155177116,0.14028646051883698,0.052767232060432434,0.02508958987891674,-9.401933670043945,0.0004527326673269272,-0.0003500722232274711,-0.000327033456414938,0,0,21.831501007080078,100.35900115966797,VNBIN,3091,0,1777874409117105452
1777874409222888341,/dev/ttyUSB_VN300,9829.850006,0,32896,0,0,false,false,false,-167.19461059570312,0.22344984114170074,-0.16575570404529572,0.0,0.0,0.0,0.0,0.0,0.0,0.0,0.0,0.0,-0.06746971607208252,0.013951398432254791,0.14409351348876953,0.03632556274533272,0.019431164488196373,-9.395803451538086,0.0006421743892133236,0.00031609530560672283,-0.00014543812721967697,0,0,21.831857681274414,100.35900115966797,VNBIN,3093,0,1777874409216825416
1777874409322590638,/dev/ttyUSB_VN300,9829.950006000001,0,32896,0,0,false,false,false,-167.19003295898438,0.22334878146648407,-0.16664710640907288,0.0,0.0,0.0,0.0,0.0,0.0,0.0,0.0,0.0,-0.0745876356959343,0.016073914244771004,0.14259615540504456,0.04141632467508316,0.03231349587440491,-9.39576530456543,-0.00015180418267846107,-0.00014322740025818348,0.00008936319500207901,0,0,21.83147621154785,100.34300231933594,VNBIN,3095,0,1777874409317510328
1777874409423293957,/dev/ttyUSB_VN300,9830.050006000001,0,32896,0,0,false,false,false,-167.1881103515625,0.224483460187912,-0.16820383071899414,0.0,0.0,0.0,0.0,0.0,0.0,0.0,0.0,0.0,-0.07144772261381149,0.011808911338448524,0.14515523612499237,0.05031333118677139,0.026976732537150383,-9.395506858825684,-0.00041681108996272087,0.00030824204441159964,0.0010452731512486935,0,0,21.831899642944336,100.3550033569336,VNBIN,3097,0,1777874409417221217
1777874409523032921,/dev/ttyUSB_VN300,9830.150006,0,32896,0,0,false,false,false,-167.18585205078125,0.22494493424892426,-0.16817858815193176,0.0,0.0,0.0,0.0,0.0,0.0,0.0,0.0,0.0,-0.06845098733901978,0.01182316243648529,0.14281153678894043,0.04240505397319794,0.0241407360881567,-9.391340255737305,-0.00009363098070025444,-0.000036031531635671854,0.00016698893159627914,0,0,21.83169937133789,100.35900115966797,VNBIN,3099,0,1777874409516953645
1777874409622710014,/dev/ttyUSB_VN300,9830.250006,0,32896,0,0,false,false,false,-167.1879425048828,0.2197941094636917,-0.16748744249343872,0.0,0.0,0.0,0.0,0.0,0.0,0.0,0.0,0.0,-0.06548812240362167,0.015024103224277496,0.14294736087322235,0.01926146261394024,0.031977999955415726,-9.399961471557617,-0.00010918965563178062,0.00004761235322803259,0.0010534683242440224,0,0,21.832582473754883,100.35900115966797,VNBIN,3101,0,1777874409616647164
1777874409722425127,/dev/ttyUSB_VN300,9830.350006,0,32896,0,0,false,false,false,-167.1845245361328,0.22091998159885406,-0.16920888423919678,0.0,0.0,0.0,0.0,0.0,0.0,0.0,0.0,0.0,-0.07355789840221405,0.015009137801826,0.14263010025024414,0.04028280824422836,0.04922940209507942,-9.418928146362305,-0.0005729147233068943,-0.0004849181859754026,-0.0003448985517024994,0,0,21.83341407775879,100.34700775146484,VNBIN,3103,0,1777874409717362186
1777874409823152075,/dev/ttyUSB_VN300,9830.450006000001,0,128,0,0,false,false,false,-167.18560791015625,0.21987582743167877,-0.16728754341602325,0.0,0.0,0.0,0.0,0.0,0.0,0.0,0.0,0.0,-0.07254261523485184,0.013949776999652386,0.14143314957618713,0.02140546776354313,0.03414108604192734,-9.378140449523926,0.0012647639960050583,-0.00034481356851756573,0.00008211331441998482,0,0,21.833980560302734,100.35900115966797,VNBIN,3105,0,1777874409817082984
1777874409922854520,/dev/ttyUSB_VN300,9830.550007,0,128,0,0,false,false,false,-167.19117736816406,0.21901141107082367,-0.1673939973115921,0.0,0.0,0.0,0.0,0.0,0.0,0.0,0.0,0.0,-0.06643188744783401,0.01394272968173027,0.14659610390663147,0.03464382514357567,0.011183609254658222,-9.402372360229492,0.00018500583246350288,-0.0010583975818008184,0.000465411227196455,0,0,21.834123611450195,100.35900115966797,VNBIN,3107,0,1777874409916774689
1777874410022557558,/dev/ttyUSB_VN300,9830.650006,0,128,0,0,false,false,false,-167.1924285888672,0.21911174058914185,-0.1676178276538849,0.0,0.0,0.0,0.0,0.0,0.0,0.0,0.0,0.0,-0.06538727134466171,0.012875101529061794,0.14786119759082794,0.04717626795172691,0.014407909475266933,-9.38044548034668,0.0001866067759692669,-0.0003440203727222979,-0.00013325084000825882,0,0,21.833478927612305,100.35900115966797,VNBIN,3109,0,1777874410017478729
1777874410123284025,/dev/ttyUSB_VN300,9830.750006,0,128,0,0,false,false,false,-167.19204711914062,0.2199697643518448,-0.16745899617671967,0.0,0.0,0.0,0.0,0.0,0.0,0.0,0.0,0.0,-0.07148350775241852,0.012878022156655788,0.14392971992492676,0.023980069905519485,0.02823835238814354,-9.374231338500977,-0.00004722690209746361,0.00003149453550577164,-0.00020510191097855568,0,0,21.832956314086914,100.35900115966797,VNBIN,3111,0,1777874410117204619
1777874410223044897,/dev/ttyUSB_VN300,9830.850006,0,128,0,0,false,false,false,-167.19300842285156,0.21875327825546265,-0.16509699821472168,0.0,0.0,0.0,0.0,0.0,0.0,0.0,0.0,0.0,-0.07149635255336761,0.01499971840530634,0.14640359580516815,0.022328125312924385,0.013002707622945309,-9.404753684997559,0.0002209884114563465,-0.0002024546847678721,0.0007577082142233849,0,0,21.83298683166504,100.34300231933594,VNBIN,3113,0,1777874410216907546
1777874410322696490,/dev/ttyUSB_VN300,9830.950006000001,0,128,0,0,false,false,false,-167.1986846923828,0.21778720617294312,-0.16632671654224396,0.0,0.0,0.0,0.0,0.0,0.0,0.0,0.0,0.0,-0.06541667878627777,0.012883993797004223,0.14539863169193268,0.03010312281548977,0.034018080681562424,-9.385119438171387,-0.0004221610724925995,0.0003069983795285225,-0.0005293721333146095,0,0,21.833269119262695,100.34700775146484,VNBIN,3115,0,1777874410316624510
1777874410423414124,/dev/ttyUSB_VN300,9831.050006000001,0,128,0,0,false,false,false,-167.19586181640625,0.2177455574274063,-0.1657920628786087,0.0,0.0,0.0,0.0,0.0,0.0,0.0,0.0,0.0,-0.07357895374298096,0.016074759885668755,0.14263559877872467,0.0459468811750412,0.02567383274435997,-9.410929679870605,-0.00019515864551067352,-0.00009509612573310733,0.00035390304401516914,0,0,21.832857131958008,100.34700775146484,VNBIN,3117,0,1777874410417339237
1777874410523108569,/dev/ttyUSB_VN300,9831.150006,0,32896,0,0,false,false,false,-167.19189453125,0.2164917141199112,-0.16579611599445343,0.0,0.0,0.0,0.0,0.0,0.0,0.0,0.0,0.0,-0.06952300667762756,0.015016271732747555,0.14278851449489594,0.048586148768663406,0.017586689442396164,-9.397102355957031,0.00006656860932707787,-0.00008709973189979792,0.00021915044635534286,0,0,21.833038330078125,100.35900115966797,VNBIN,3119,0,1777874410517045182
1777874410622813959,/dev/ttyUSB_VN300,9831.250006,0,32896,0,0,false,false,false,-167.1852264404297,0.2180936336517334,-0.16636225581169128,0.0,0.0,0.0,0.0,0.0,0.0,0.0,0.0,0.0,-0.0695018619298935,0.013951324857771397,0.14278285205364227,0.03253583237528801,0.03322726488113403,-9.407262802124023,0.0003335890360176563,0.00019399274606257677,-0.0007557119242846966,0,0,21.833044052124023,100.34700775146484,VNBIN,3121,0,1777874410616748405
1777874410722548479,/dev/ttyUSB_VN300,9831.350006,0,32896,0,0,false,false,false,-167.18685913085938,0.21740207076072693,-0.16656650602817535,0.0,0.0,0.0,0.0,0.0,0.0,0.0,0.0,0.0,-0.061457984149456024,0.01820903830230236,0.14804819226264954,0.019844986498355865,0.020170828327536583,-9.397356986999512,0.0003654775209724903,-0.00008264684583991766,-0.0001739831641316414,0,0,21.832929611206055,100.3550033569336,VNBIN,3123,0,1777874410717470465
1777874410823275594,/dev/ttyUSB_VN300,9831.450006000001,0,32896,0,0,false,false,false,-167.18441772460938,0.21714623272418976,-0.1680782586336136,0.0,0.0,0.0,0.0,0.0,0.0,0.0,0.0,0.0,-0.07355788350105286,0.015009133145213127,0.14263005554676056,0.019805271178483963,0.024231193587183952,-9.382790565490723,-0.0001681591384112835,0.0009950150270015001,0.00024591200053691864,0,0,21.83349609375,100.35900115966797,VNBIN,3125,0,1777874410817213892
1777874410922942502,/dev/ttyUSB_VN300,9831.550006000001,0,32896,0,0,false,false,false,-167.1850128173828,0.21760229766368866,-0.16634881496429443,0.0,0.0,0.0,0.0,0.0,0.0,0.0,0.0,0.0,-0.07149624824523926,0.0149996904656291,0.14640338718891144,0.021833788603544235,0.015347495675086975,-9.394832611083984,0.0004015169106423855,0.0012846068711951375,-0.00004353327676653862,0,0,21.832847595214844,100.35900115966797,VNBIN,3127,0,1777874410916877615
1777874411022676670,/dev/ttyUSB_VN300,9831.650005000001,0,32896,0,0,false,false,false,-167.18409729003906,0.2172120213508606,-0.16608648002147675,0.0,0.0,0.0,0.0,0.0,0.0,0.0,0.0,0.0,-0.06539536267518997,0.01181899942457676,0.14539304375648499,0.03784777224063873,0.03439655154943466,-9.399850845336914,-0.00041692471131682396,-0.0005381315713748336,-0.0001794775016605854,0,0,21.83243751525879,100.35900115966797,VNBIN,3129,0,1777874411016601283
1777874411123350563,/dev/ttyUSB_VN300,9831.750006,0,128,0,0,false,false,false,-167.18548583984375,0.216891810297966,-0.16314785182476044,0.0,0.0,0.0,0.0,0.0,0.0,0.0,0.0,0.0,-0.06445012986660004,0.01501762866973877,0.14544951915740967,0.03836289420723915,0.024977292865514755,-9.38597297668457,-0.00036150822415947914,-0.0006961559411138296,-0.0005530724301934242,0,0,21.831262588500977,100.35900115966797,VNBIN,3131,0,1777874411117285879
1777874411223082342,/dev/ttyUSB_VN300,9831.850006,0,128,0,0,false,false,false,-167.17872619628906,0.21548563241958618,-0.1622699648141861,0.0,0.0,0.0,0.0,0.0,0.0,0.0,0.0,0.0,-0.07254898548126221,0.015012172050774097,0.14266957342624664,0.026356160640716553,0.03740278258919716,-9.407757759094238,-0.0002210778184235096,-0.00006748602027073503,0.000794682651758194,0,0,21.831804275512695,100.35900115966797,VNBIN,3133,0,1777874411217004677
1777874411322801250,/dev/ttyUSB_VN300,9831.950006000001,0,128,0,0,false,false,false,-167.17697143554688,0.21166574954986572,-0.1643383800983429,0.0,0.0,0.0,0.0,0.0,0.0,0.0,0.0,0.0,-0.06749080866575241,0.015015733428299427,0.14409935474395752,0.03160903975367546,0.03190024569630623,-9.405415534973145,-0.0001553017646074295,0.00014682847540825605,-0.00013367598876357079,0,0,21.832969665527344,100.35900115966797,VNBIN,3135,0,1777874411316720641
1777874411422483566,/dev/ttyUSB_VN300,9832.050006000001,0,128,0,0,false,false,false,-167.17625427246094,0.21015435457229614,-0.16448819637298584,0.0,0.0,0.0,0.0,0.0,0.0,0.0,0.0,0.0,-0.06644655019044876,0.013947507366538048,0.14536471664905548,0.03950022533535957,0.031077072024345398,-9.397163391113281,-0.0005648047663271427,-0.00014146330067887902,0.00006377091631293297,0,0,21.833574295043945,100.34300231933594,VNBIN,3137,0,1777874411417412237
1777874411523203440,/dev/ttyUSB_VN300,9832.150006,0,128,0,0,false,false,false,-167.17262268066406,0.21049509942531586,-0.16495081782341003,0.0,0.0,0.0,0.0,0.0,0.0,0.0,0.0,0.0,-0.07357900589704514,0.016074081882834435,0.14263573288917542,0.032026056200265884,0.041224025189876556,-9.394742012023926,0.0004158513620495796,-0.0001562599209137261,-0.00038899853825569153,0,0,21.8333797454834,100.35900115966797,VNBIN,3139,0,1777874411517132053
1777874411622928275,/dev/ttyUSB_VN300,9832.250006,0,128,0,0,false,false,false,-167.1756134033203,0.20961904525756836,-0.1642141044139862,0.0,0.0,0.0,0.0,0.0,0.0,0.0,0.0,0.0,-0.07056737691164017,0.01608392968773842,0.1415235698223114,0.04664989188313484,0.01704670861363411,-9.402033805847168,-0.00016803666949272156,-0.00008636282291263342,0.00005264626815915108,0,0,21.83404541015625,100.37100219726562,VNBIN,3141,0,1777874411616857591
1777874411722620961,/dev/ttyUSB_VN300,9832.350006,0,128,0,0,false,false,false,-167.1756134033203,0.20743535459041595,-0.1635507345199585,0.0,0.0,0.0,0.0,0.0,0.0,0.0,0.0,0.0,-0.06945138424634933,0.012876195833086967,0.14524009823799133,0.038987524807453156,0.032586291432380676,-9.401501655578613,-0.0003636707551777363,-0.00008213991532102227,-0.0003407779149711132,0,0,21.834623336791992,100.35900115966797,VNBIN,3143,0,1777874411717546595
1777874411823387409,/dev/ttyUSB_VN300,9832.450006000001,0,128,0,0,false,false,false,-167.17559814453125,0.20794479548931122,-0.16634014248847961,0.0,0.0,0.0,0.0,0.0,0.0,0.0,0.0,0.0,-0.06548000872135162,0.016078926622867584,0.1454157680273056,0.026098545640707016,0.02324485033750534,-9.411002159118652,-0.0001307218335568905,-0.0006373432115651667,-0.00007161637768149376,0,0,21.83492088317871,100.34700775146484,VNBIN,3145,0,1777874411817258318
1777874411923062984,/dev/ttyUSB_VN300,9832.550006000001,0,128,0,0,false,false,false,-167.17623901367188,0.20943337678909302,-0.16766788065433502,0.0,0.0,0.0,0.0,0.0,0.0,0.0,0.0,0.0,-0.07248570024967194,0.011814404278993607,0.142653226852417,0.030437413603067398,0.038878779858350754,-9.40919303894043,-7.632188498973846e-7,0.00042864016722887754,0.0002269684337079525,0,0,21.8346004486084,100.35900115966797,VNBIN,3147,0,1777874411916983579
1777874412022768300,/dev/ttyUSB_VN300,9832.650006,0,128,0,0,false,false,false,-167.1782989501953,0.20847879350185394,-0.16585344076156616,0.0,0.0,0.0,0.0,0.0,0.0,0.0,0.0,0.0,-0.07155510783195496,0.015016193501651287,0.14147816598415375,0.03042798489332199,0.031127117574214935,-9.399324417114258,0.000054603442549705505,-0.00010860309703275561,0.0002689310349524021,0,0,21.835235595703125,100.35900115966797,VNBIN,3149,0,1777874412016694691
1777874412122465042,/dev/ttyUSB_VN300,9832.750006,0,32896,0,0,false,false,false,-167.17892456054688,0.20835207402706146,-0.16727857291698456,0.0,0.0,0.0,0.0,0.0,0.0,0.0,0.0,0.0,-0.0665116161108017,0.015025496482849121,0.14167645573616028,0.040487419813871384,0.027696533128619194,-9.4007568359375,0.00027191732078790665,-0.000690740067511797,-0.00031861569732427597,0,0,21.834497451782227,100.35900115966797,VNBIN,3151,0,1777874412117401861
1777874412223197231,/dev/ttyUSB_VN300,9832.850006,0,32896,0,0,false,false,false,-167.18310546875,0.2079893797636032,-0.16682404279708862,0.0,0.0,0.0,0.0,0.0,0.0,0.0,0.0,0.0,-0.06653911620378494,0.017151976004242897,0.14291934669017792,0.02915441058576107,0.009026488289237022,-9.398665428161621,0.0002666325308382511,0.0004924171371385455,-0.0005940129049122334,0,0,21.83431625366211,100.34700775146484,VNBIN,3153,0,1777874412217121344
1777874412322895566,/dev/ttyUSB_VN300,9832.950006000001,0,32896,0,0,false,false,false,-167.18312072753906,0.21008440852165222,-0.16717150807380676,0.0,0.0,0.0,0.0,0.0,0.0,0.0,0.0,0.0,-0.0734650194644928,0.011804070323705673,0.14507617056369781,0.034983761608600616,0.038271214812994,-9.37592887878418,-0.00035577360540628433,0.000047970039304345846,0.00021251710131764412,0,0,21.83348846435547,100.35900115966797,VNBIN,3155,0,1777874412316828975
1777874412422608122,/dev/ttyUSB_VN300,9833.050006000001,0,32896,0,0,false,false,false,-167.18653869628906,0.21178312599658966,-0.16572250425815582,0.0,0.0,0.0,0.0,0.0,0.0,0.0,0.0,0.0,-0.06849976629018784,0.015013318508863449,0.14405977725982666,0.045187342911958694,0.02874709665775299,-9.379188537597656,0.000453263521194458,0.0001927852863445878,0.00015786197036504745,0,0,21.833839416503906,100.34300231933594,VNBIN,3157,0,1777874412416542420
1777874412523313885,/dev/ttyUSB_VN300,9833.150006,0,32896,0,0,false,false,false,-167.1841583251953,0.21300755441188812,-0.16760273277759552,0.0,0.0,0.0,0.0,0.0,0.0,0.0,0.0,0.0,-0.0634625107049942,0.016082825139164925,0.14549486339092255,0.04342257231473923,0.022645067423582077,-9.381196975708008,-0.0005263485945761204,0.0007216685335151851,-0.0004364526830613613,0,0,21.834529876708984,100.35900115966797,VNBIN,3159,0,1777874412517242739
1777874412623022127,/dev/ttyUSB_VN300,9833.250006,0,32896,0,0,false,false,false,-167.18902587890625,0.21430934965610504,-0.16583819687366486,0.0,0.0,0.0,0.0,0.0,0.0,0.0,0.0,0.0,-0.07253441959619522,0.01500585675239563,0.143901526927948,0.04356023669242859,0.04239741340279579,-9.395599365234375,0.0002954038791358471,0.00003274722257629037,-0.0007764315232634544,0,0,21.834320068359375,100.35900115966797,VNBIN,3161,0,1777874412616958888
1777874412722750091,/dev/ttyUSB_VN300,9833.350006,0,32896,0,0,false,false,false,-167.1935272216797,0.2133634388446808,-0.16728347539901733,0.0,0.0,0.0,0.0,0.0,0.0,0.0,0.0,0.0,-0.07051710039377213,0.015010065399110317,0.14398032426834106,0.0372912771999836,0.023214109241962433,-9.396003723144531,0.00007375748828053474,-0.00019438081653788686,0.0000212998129427433,0,0,21.833486557006836,100.35900115966797,VNBIN,3163,0,1777874412716682000
1777874412822678278,/dev/ttyUSB_VN300,9833.450006000001,0,32896,0,0,false,false,false,-167.19534301757812,0.20981644093990326,-0.16608403623104095,0.0,0.0,0.0,0.0,0.0,0.0,0.0,0.0,0.0,-0.06846390664577484,0.013943917118012905,0.14528535306453705,0.020930366590619087,0.02529059164226055,-9.386290550231934,0.0006391648203134537,0.00040210739825852215,-0.00044933613389730453,0,0,21.83356475830078,100.34300231933594,VNBIN,3165,0,1777874412817389411
1777874412923151467,/dev/ttyUSB_VN300,9833.550006000001,0,32896,0,0,false,false,false,-167.19871520996094,0.21188895404338837,-0.16492533683776855,0.0,0.0,0.0,0.0,0.0,0.0,0.0,0.0,0.0,-0.0634835809469223,0.017148105427622795,0.14550045132637024,0.0440090075135231,0.00775464903563261,-9.405837059020996,0.000537295825779438,0.0002533812657929957,-0.0004854188300669193,0,0,21.834667205810547,100.35900115966797,VNBIN,3167,0,1777874412917082875
1777874413022860319,/dev/ttyUSB_VN300,9833.650006,0,128,0,0,false,false,false,-167.19912719726562,0.21161313354969025,-0.1642787903547287,0.0,0.0,0.0,0.0,0.0,0.0,0.0,0.0,0.0,-0.07251334190368652,0.013940230011940002,0.14389556646347046,0.03393983095884323,0.031278301030397415,-9.405464172363281,0.00022739311680197716,-0.0002611947129480541,-0.0005836286582052708,0,0,21.83501625061035,100.34700775146484,VNBIN,3169,0,1777874413016797136
1777874413122565098,/dev/ttyUSB_VN300,9833.750006,0,128,0,0,false,false,false,-167.1986846923828,0.20997528731822968,-0.16449958086013794,0.0,0.0,0.0,0.0,0.0,0.0,0.0,0.0,0.0,-0.07153863459825516,0.01712903194129467,0.14641475677490234,0.028162073343992233,0.023201508447527885,-9.3973970413208,0.00025988323614001274,0.0000910838134586811,0.0005605453625321388,0,0,21.834152221679688,100.35900115966797,VNBIN,3171,0,1777874413117500751
1777874413223316695,/dev/ttyUSB_VN300,9833.850005,0,128,0,0,false,false,false,-167.20004272460938,0.21093273162841797,-0.1648678332567215,0.0,0.0,0.0,0.0,0.0,0.0,0.0,0.0,0.0,-0.06541027873754501,0.011822805739939213,0.14416177570819855,0.03577275574207306,0.03409027308225632,-9.401692390441895,-0.0006441166624426842,-0.0008931872434914112,-0.00020228372886776924,0,0,21.833593368530273,100.35900115966797,VNBIN,3173,0,1777874413217251400
1777874413322695399,/dev/ttyUSB_VN300,9833.950006000001,0,128,0,0,false,false,false,-167.19834899902344,0.2122153639793396,-0.1670173853635788,0.0,0.0,0.0,0.0,0.0,0.0,0.0,0.0,0.0,-0.06342040747404099,0.013952871784567833,0.1454835832118988,0.017185861244797707,0.026106344535946846,-9.403898239135742,-0.00004692515358328819,-0.00030607497319579124,-0.00013974541798233986,0,0,21.833587646484375,100.35900115966797,VNBIN,3175,0,1777874413316913901
